Currently Being Observed,First Bloom Date,Site Name,Year,Latitude,Longitude,Month First Bloom
True,5/21/1953,"Wakkanai, Japan",1/1/1953,45.4158108,141.6730309,May
False,5/8/1953,"Rumoi, Japan",1/1/1953,43.941029,141.6368171,May
True,5/11/1953,"Asahikawa, Japan",1/1/1953,43.7627501,142.3579263,May
True,5/24/1953,"Abashiri, Japan",1/1/1953,44.0206027,144.2732035,May
True,5/7/1953,"Sapporo, Japan",1/1/1953,43.061936,141.3542924,May
False,5/9/1953,"Iwamizawa, Japan",1/1/1953,43.1959915,141.7761132,May
True,5/15/1953,"Obihiro, Japan",1/1/1953,42.923809,143.1966324,May
True,,"Kushiro, Japan",1/1/1953,42.9906837,144.3820381,
False,,"Nemuro, Japan",1/1/1953,43.3301154,145.5829068,
True,5/10/1953,"Muroran, Japan",1/1/1953,42.3152461,140.9740731,May
False,5/9/1953,"Urakawa, Japan",1/1/1953,42.1684998,142.7680974,May
False,5/8/1953,"Esashi, Japan",1/1/1953,41.8690714,140.1272235,May
True,5/2/1953,"Hakodate, Japan",1/1/1953,41.768793,140.729008,May
False,5/12/1953,"Kutchan, Japan",1/1/1953,42.901741,140.7590818,May
False,,"Monbetsu, Japan",1/1/1953,44.3565151,143.3545224,
False,,"Hiroo, Japan",1/1/1953,42.285532,143.3116162,
False,,"Shinjo, Japan",1/1/1953,38.7648577,140.3021449,
True,,"Aomori, Japan",1/1/1953,40.886943,140.590121,
False,4/26/1953,"Hachinohe, Japan",1/1/1953,40.5122388,141.4882959,April
True,4/22/1953,"Akita, Japan",1/1/1953,39.6898802,140.342608,April
True,4/27/1953,"Morioka, Japan",1/1/1953,39.7021331,141.1545397,April
False,4/22/1953,"Miyako, Japan",1/1/1953,39.6395835,141.9461177,April
False,4/15/1953,"Sakata, Japan",1/1/1953,38.9147229,139.8364101,April
True,4/19/1953,"Yamagata, Japan",1/1/1953,38.2553393,140.3400205,April
True,4/11/1953,"Sendai, Japan",1/1/1953,38.2677554,140.8691498,April
True,4/9/1953,"Fukushima, Japan",1/1/1953,37.75454,140.4592144,April
False,4/16/1953,"Shirakawa, Japan",1/1/1953,37.1263397,140.2107192,April
False,4/6/1953,"Onahama, Japan",1/1/1953,36.9383759,140.8977807,April
False,4/8/1953,"Wajima, Japan",1/1/1953,37.3905644,136.8994281,April
False,4/11/1953,"Aikawa, Japan",1/1/1953,35.532347,139.297795,April
True,4/13/1953,"Niigata, Japan",1/1/1953,37.6452283,138.7669125,April
True,4/2/1953,"Kanazawa, Japan",1/1/1953,36.5780499,136.6480247,April
True,4/8/1953,"Toyama, Japan",1/1/1953,36.6957569,137.2136215,April
True,4/17/1953,"Nagano, Japan",1/1/1953,36.1143945,138.0319015,April
False,4/10/1953,"Takada, Japan",1/1/1953,34.516288,135.7448226,April
True,4/6/1953,"Utsunomiya, Japan",1/1/1953,36.5549677,139.8828776,April
True,4/7/1953,"Fukui, Japan",1/1/1953,35.9263502,136.6068127,April
False,4/21/1953,"Takayama, Japan",1/1/1953,36.1396246,137.2510322,April
False,4/11/1953,"Matsumoto, Japan",1/1/1953,36.2382047,137.9687141,April
True,4/3/1953,"Maebashi, Japan",1/1/1953,36.3893418,139.0632826,April
True,4/1/1953,"Kumagaya, Japan",1/1/1953,36.1472472,139.3886141,April
True,4/4/1953,"Mito, Japan",1/1/1953,36.3657792,140.4713933,April
False,4/3/1953,"Tsuruga, Japan",1/1/1953,35.6445135,136.0734634,April
True,4/3/1953,"Gifu, Japan",1/1/1953,35.7867449,137.0460777,April
True,4/3/1953,"Nagoya, Japan",1/1/1953,35.1851045,136.8998438,April
False,4/7/1953,"Iida, Japan",1/1/1953,35.5147101,137.8219519,April
True,3/30/1953,"Kofu, Japan",1/1/1953,35.6652481,138.5710441,March
True,3/25/1953,"Choshi, Japan",1/1/1953,35.7345338,140.8272667,March
True,4/1/1953,"Tsu, Japan",1/1/1953,34.7341973,136.5153283,April
False,4/1/1953,"Hamamatsu, Japan",1/1/1953,34.7109786,137.7259431,April
True,3/25/1953,"Shizuoka, Japan",1/1/1953,34.979149,138.38299,March
True,3/26/1953,"Tokyo, Japan",1/1/1953,35.6828387,139.7594549,March
False,3/22/1953,"Owase, Japan",1/1/1953,34.0707815,136.1911394,March
True,3/25/1953,"Yokohama, Japan",1/1/1953,35.444991,139.636768,March
False,,"Tateyama, Japan",1/1/1953,34.9965304,139.8699838,
False,4/5/1953,"Oshima, Japan",1/1/1953,34.737515,139.400251,April
False,,"Miyakejima, Japan",1/1/1953,34.085378,139.521277314,
False,3/27/1953,"Hachijojima, Japan",1/1/1953,33.1024935,139.807693928,March
False,4/6/1953,"Saigo, Japan",1/1/1953,32.8728923,130.2439633,April
True,4/2/1953,"Matsue, Japan",1/1/1953,35.468115,133.048768,April
False,,"Yonago, Japan",1/1/1953,35.4276408,133.331459,
True,4/3/1953,"Tottori, Japan",1/1/1953,35.3555075,133.8678525,April
False,4/5/1953,"Toyooka, Japan",1/1/1953,35.5446737,134.8201126,April
False,4/1/1953,"Maizuru, Japan",1/1/1953,35.4704853,135.34844,April
False,3/23/1953,"Hamada, Japan",1/1/1953,34.8991982,132.0799984,March
True,4/5/1953,"Kyoto, Japan",1/1/1953,35.021041,135.7556075,April
True,4/5/1953,"Hikone, Japan",1/1/1953,35.254276,136.215376,April
True,4/2/1953,"Hiroshima, Japan",1/1/1953,34.3916058,132.4518156,April
True,3/31/1953,"Okayama, Japan",1/1/1953,34.6553944,133.9194595,March
True,4/4/1953,"Kobe, Japan",1/1/1953,34.6932379,135.1943764,April
True,4/2/1953,"Osaka, Japan",1/1/1953,34.6198813,135.490357,April
False,3/30/1953,"Sumoto, Japan",1/1/1953,34.3389909,134.859985,March
True,3/20/1953,"Wakayama, Japan",1/1/1953,34.234617,135.1782181,March
False,,"Shionomisaki, Japan",1/1/1953,33.4377085,135.7549926,
True,,"Nara, Japan",1/1/1953,34.2963089,135.8816819,
True,3/26/1953,"Matsuyama, Japan",1/1/1953,33.8395188,132.7653521,March
True,4/1/1953,"Takamatsu, Japan",1/1/1953,34.3425592,134.0465338,April
False,,"Uwajima, Japan",1/1/1953,33.2232315,132.5606514,
True,,"Kochi, Japan",1/1/1953,33.5680384,133.5394221,
True,3/27/1953,"Tokushima, Japan",1/1/1953,34.0698307,134.5550353,March
True,3/29/1953,"Shimonoseki, Japan",1/1/1953,33.9577116,130.9415455,March
False,3/28/1953,"Izuhara, Japan",1/1/1953,34.2022882,129.288952,March
True,3/28/1953,"Fukuoka, Japan",1/1/1953,33.6251241,130.6180016,March
True,3/26/1953,"Saga, Japan",1/1/1953,33.2185408,130.1296585,March
True,3/26/1953,"Oita, Japan",1/1/1953,33.1819875,131.4270217,March
False,3/26/1953,"Fukue, Japan",1/1/1953,34.0471135,130.9156608,March
True,3/26/1953,"Nagasaki, Japan",1/1/1953,33.1154683,129.7874339,March
True,3/28/1953,"Kumamoto, Japan",1/1/1953,32.6450475,130.6341345,March
False,,"Nobeoka, Japan",1/1/1953,32.5823063,131.6649034,
True,3/29/1953,"Kagoshima, Japan",1/1/1953,31.5841689,130.543387,March
True,,"Miyazaki, Japan",1/1/1953,31.9076334,131.4204022,
False,,"Yakushima, Japan",1/1/1953,30.347925,130.524483244,
False,3/25/1953,"Tanegashima, Japan",1/1/1953,30.591848,130.995894840,March
True,1/29/1953,"Naze, Japan",1/1/1953,28.3934485,129.5337385,January
False,,"Yonaguni Island, Japan",1/1/1953,24.455595,122.987605976,
True,1/9/1953,"Ishigaki Island, Japan",1/1/1953,24.3618503,124.1543424,January
True,,"Miyakojima, Japan",1/1/1953,24.813957,125.305578983,
False,,"Kumejima, Japan",1/1/1953,26.341139,126.789052891,
True,,"Naha, Japan",1/1/1953,26.2122345,127.6791452,
False,,"Nago, Japan",1/1/1953,26.5914524,127.9773062,
False,,"Iriomote Island, Japan",1/1/1953,24.3464015,123.839163649,
True,,"Minamidaitojima, Japan",1/1/1953,25.8423115,131.242871292,
True,5/17/1954,"Wakkanai, Japan",1/1/1954,45.4158108,141.6730309,May
False,5/11/1954,"Rumoi, Japan",1/1/1954,43.941029,141.6368171,May
True,5/13/1954,"Asahikawa, Japan",1/1/1954,43.7627501,142.3579263,May
True,5/16/1954,"Abashiri, Japan",1/1/1954,44.0206027,144.2732035,May
True,5/4/1954,"Sapporo, Japan",1/1/1954,43.061936,141.3542924,May
False,5/6/1954,"Iwamizawa, Japan",1/1/1954,43.1959915,141.7761132,May
True,5/7/1954,"Obihiro, Japan",1/1/1954,42.923809,143.1966324,May
True,,"Kushiro, Japan",1/1/1954,42.9906837,144.3820381,
False,,"Nemuro, Japan",1/1/1954,43.3301154,145.5829068,
True,5/7/1954,"Muroran, Japan",1/1/1954,42.3152461,140.9740731,May
False,5/7/1954,"Urakawa, Japan",1/1/1954,42.1684998,142.7680974,May
False,5/1/1954,"Esashi, Japan",1/1/1954,41.8690714,140.1272235,May
True,5/3/1954,"Hakodate, Japan",1/1/1954,41.768793,140.729008,May
False,5/11/1954,"Kutchan, Japan",1/1/1954,42.901741,140.7590818,May
False,,"Monbetsu, Japan",1/1/1954,44.3565151,143.3545224,
False,,"Hiroo, Japan",1/1/1954,42.285532,143.3116162,
False,,"Shinjo, Japan",1/1/1954,38.7648577,140.3021449,
True,,"Aomori, Japan",1/1/1954,40.886943,140.590121,
False,4/24/1954,"Hachinohe, Japan",1/1/1954,40.5122388,141.4882959,April
True,4/17/1954,"Akita, Japan",1/1/1954,39.6898802,140.342608,April
True,4/19/1954,"Morioka, Japan",1/1/1954,39.7021331,141.1545397,April
False,4/16/1954,"Miyako, Japan",1/1/1954,39.6395835,141.9461177,April
False,4/11/1954,"Sakata, Japan",1/1/1954,38.9147229,139.8364101,April
True,4/13/1954,"Yamagata, Japan",1/1/1954,38.2553393,140.3400205,April
True,4/6/1954,"Sendai, Japan",1/1/1954,38.2677554,140.8691498,April
True,4/5/1954,"Fukushima, Japan",1/1/1954,37.75454,140.4592144,April
False,4/6/1954,"Shirakawa, Japan",1/1/1954,37.1263397,140.2107192,April
False,4/1/1954,"Onahama, Japan",1/1/1954,36.9383759,140.8977807,April
False,4/5/1954,"Wajima, Japan",1/1/1954,37.3905644,136.8994281,April
False,4/6/1954,"Aikawa, Japan",1/1/1954,35.532347,139.297795,April
True,4/8/1954,"Niigata, Japan",1/1/1954,37.6452283,138.7669125,April
True,4/1/1954,"Kanazawa, Japan",1/1/1954,36.5780499,136.6480247,April
True,4/4/1954,"Toyama, Japan",1/1/1954,36.6957569,137.2136215,April
True,4/7/1954,"Nagano, Japan",1/1/1954,36.1143945,138.0319015,April
False,4/4/1954,"Takada, Japan",1/1/1954,34.516288,135.7448226,April
True,4/2/1954,"Utsunomiya, Japan",1/1/1954,36.5549677,139.8828776,April
True,4/2/1954,"Fukui, Japan",1/1/1954,35.9263502,136.6068127,April
False,4/6/1954,"Takayama, Japan",1/1/1954,36.1396246,137.2510322,April
False,4/7/1954,"Matsumoto, Japan",1/1/1954,36.2382047,137.9687141,April
True,3/29/1954,"Maebashi, Japan",1/1/1954,36.3893418,139.0632826,March
True,3/30/1954,"Kumagaya, Japan",1/1/1954,36.1472472,139.3886141,March
True,4/1/1954,"Mito, Japan",1/1/1954,36.3657792,140.4713933,April
False,3/30/1954,"Tsuruga, Japan",1/1/1954,35.6445135,136.0734634,March
True,3/29/1954,"Gifu, Japan",1/1/1954,35.7867449,137.0460777,March
True,3/30/1954,"Nagoya, Japan",1/1/1954,35.1851045,136.8998438,March
False,4/3/1954,"Iida, Japan",1/1/1954,35.5147101,137.8219519,April
True,3/31/1954,"Kofu, Japan",1/1/1954,35.6652481,138.5710441,March
True,3/26/1954,"Choshi, Japan",1/1/1954,35.7345338,140.8272667,March
True,3/30/1954,"Tsu, Japan",1/1/1954,34.7341973,136.5153283,March
False,3/28/1954,"Hamamatsu, Japan",1/1/1954,34.7109786,137.7259431,March
True,3/27/1954,"Shizuoka, Japan",1/1/1954,34.979149,138.38299,March
True,3/26/1954,"Tokyo, Japan",1/1/1954,35.6828387,139.7594549,March
False,3/26/1954,"Owase, Japan",1/1/1954,34.0707815,136.1911394,March
True,3/26/1954,"Yokohama, Japan",1/1/1954,35.444991,139.636768,March
False,,"Tateyama, Japan",1/1/1954,34.9965304,139.8699838,
False,3/26/1954,"Oshima, Japan",1/1/1954,34.737515,139.400251,March
False,,"Miyakejima, Japan",1/1/1954,34.085378,139.521277314,
False,4/3/1954,"Hachijojima, Japan",1/1/1954,33.1024935,139.807693928,April
False,3/31/1954,"Saigo, Japan",1/1/1954,32.8728923,130.2439633,March
True,3/31/1954,"Matsue, Japan",1/1/1954,35.468115,133.048768,March
False,4/5/1954,"Yonago, Japan",1/1/1954,35.4276408,133.331459,April
True,4/1/1954,"Tottori, Japan",1/1/1954,35.3555075,133.8678525,April
False,4/2/1954,"Toyooka, Japan",1/1/1954,35.5446737,134.8201126,April
False,3/30/1954,"Maizuru, Japan",1/1/1954,35.4704853,135.34844,March
False,3/26/1954,"Hamada, Japan",1/1/1954,34.8991982,132.0799984,March
True,3/29/1954,"Kyoto, Japan",1/1/1954,35.021041,135.7556075,March
True,3/31/1954,"Hikone, Japan",1/1/1954,35.254276,136.215376,March
True,3/28/1954,"Hiroshima, Japan",1/1/1954,34.3916058,132.4518156,March
True,3/28/1954,"Okayama, Japan",1/1/1954,34.6553944,133.9194595,March
True,3/28/1954,"Kobe, Japan",1/1/1954,34.6932379,135.1943764,March
True,3/31/1954,"Osaka, Japan",1/1/1954,34.6198813,135.490357,March
False,3/27/1954,"Sumoto, Japan",1/1/1954,34.3389909,134.859985,March
True,3/21/1954,"Wakayama, Japan",1/1/1954,34.234617,135.1782181,March
False,,"Shionomisaki, Japan",1/1/1954,33.4377085,135.7549926,
True,3/27/1954,"Nara, Japan",1/1/1954,34.2963089,135.8816819,March
True,3/27/1954,"Matsuyama, Japan",1/1/1954,33.8395188,132.7653521,March
True,3/30/1954,"Takamatsu, Japan",1/1/1954,34.3425592,134.0465338,March
False,,"Uwajima, Japan",1/1/1954,33.2232315,132.5606514,
True,3/25/1954,"Kochi, Japan",1/1/1954,33.5680384,133.5394221,March
True,3/28/1954,"Tokushima, Japan",1/1/1954,34.0698307,134.5550353,March
True,3/28/1954,"Shimonoseki, Japan",1/1/1954,33.9577116,130.9415455,March
False,3/25/1954,"Izuhara, Japan",1/1/1954,34.2022882,129.288952,March
True,3/28/1954,"Fukuoka, Japan",1/1/1954,33.6251241,130.6180016,March
True,3/27/1954,"Saga, Japan",1/1/1954,33.2185408,130.1296585,March
True,3/27/1954,"Oita, Japan",1/1/1954,33.1819875,131.4270217,March
False,3/30/1954,"Fukue, Japan",1/1/1954,34.0471135,130.9156608,March
True,3/27/1954,"Nagasaki, Japan",1/1/1954,33.1154683,129.7874339,March
True,3/26/1954,"Kumamoto, Japan",1/1/1954,32.6450475,130.6341345,March
False,,"Nobeoka, Japan",1/1/1954,32.5823063,131.6649034,
True,3/31/1954,"Kagoshima, Japan",1/1/1954,31.5841689,130.543387,March
True,,"Miyazaki, Japan",1/1/1954,31.9076334,131.4204022,
False,,"Yakushima, Japan",1/1/1954,30.347925,130.524483244,
False,4/6/1954,"Tanegashima, Japan",1/1/1954,30.591848,130.995894840,April
True,1/21/1954,"Naze, Japan",1/1/1954,28.3934485,129.5337385,January
False,,"Yonaguni Island, Japan",1/1/1954,24.455595,122.987605976,
True,,"Ishigaki Island, Japan",1/1/1954,24.3618503,124.1543424,
True,,"Miyakojima, Japan",1/1/1954,24.813957,125.305578983,
False,,"Kumejima, Japan",1/1/1954,26.341139,126.789052891,
True,,"Naha, Japan",1/1/1954,26.2122345,127.6791452,
False,,"Nago, Japan",1/1/1954,26.5914524,127.9773062,
False,,"Iriomote Island, Japan",1/1/1954,24.3464015,123.839163649,
True,,"Minamidaitojima, Japan",1/1/1954,25.8423115,131.242871292,
True,5/17/1955,"Wakkanai, Japan",1/1/1955,45.4158108,141.6730309,May
False,5/13/1955,"Rumoi, Japan",1/1/1955,43.941029,141.6368171,May
True,5/9/1955,"Asahikawa, Japan",1/1/1955,43.7627501,142.3579263,May
True,5/18/1955,"Abashiri, Japan",1/1/1955,44.0206027,144.2732035,May
True,5/11/1955,"Sapporo, Japan",1/1/1955,43.061936,141.3542924,May
False,5/10/1955,"Iwamizawa, Japan",1/1/1955,43.1959915,141.7761132,May
True,5/10/1955,"Obihiro, Japan",1/1/1955,42.923809,143.1966324,May
True,,"Kushiro, Japan",1/1/1955,42.9906837,144.3820381,
False,,"Nemuro, Japan",1/1/1955,43.3301154,145.5829068,
True,5/18/1955,"Muroran, Japan",1/1/1955,42.3152461,140.9740731,May
False,5/11/1955,"Urakawa, Japan",1/1/1955,42.1684998,142.7680974,May
False,5/3/1955,"Esashi, Japan",1/1/1955,41.8690714,140.1272235,May
True,5/8/1955,"Hakodate, Japan",1/1/1955,41.768793,140.729008,May
False,5/19/1955,"Kutchan, Japan",1/1/1955,42.901741,140.7590818,May
False,,"Monbetsu, Japan",1/1/1955,44.3565151,143.3545224,
False,,"Hiroo, Japan",1/1/1955,42.285532,143.3116162,
False,,"Shinjo, Japan",1/1/1955,38.7648577,140.3021449,
True,,"Aomori, Japan",1/1/1955,40.886943,140.590121,
False,4/23/1955,"Hachinohe, Japan",1/1/1955,40.5122388,141.4882959,April
True,4/16/1955,"Akita, Japan",1/1/1955,39.6898802,140.342608,April
True,4/18/1955,"Morioka, Japan",1/1/1955,39.7021331,141.1545397,April
False,4/12/1955,"Miyako, Japan",1/1/1955,39.6395835,141.9461177,April
False,4/10/1955,"Sakata, Japan",1/1/1955,38.9147229,139.8364101,April
True,4/12/1955,"Yamagata, Japan",1/1/1955,38.2553393,140.3400205,April
True,4/11/1955,"Sendai, Japan",1/1/1955,38.2677554,140.8691498,April
True,4/9/1955,"Fukushima, Japan",1/1/1955,37.75454,140.4592144,April
False,4/11/1955,"Shirakawa, Japan",1/1/1955,37.1263397,140.2107192,April
False,4/3/1955,"Onahama, Japan",1/1/1955,36.9383759,140.8977807,April
False,4/7/1955,"Wajima, Japan",1/1/1955,37.3905644,136.8994281,April
False,4/8/1955,"Aikawa, Japan",1/1/1955,35.532347,139.297795,April
True,4/9/1955,"Niigata, Japan",1/1/1955,37.6452283,138.7669125,April
True,4/1/1955,"Kanazawa, Japan",1/1/1955,36.5780499,136.6480247,April
True,4/6/1955,"Toyama, Japan",1/1/1955,36.6957569,137.2136215,April
True,4/10/1955,"Nagano, Japan",1/1/1955,36.1143945,138.0319015,April
False,4/3/1955,"Takada, Japan",1/1/1955,34.516288,135.7448226,April
True,4/3/1955,"Utsunomiya, Japan",1/1/1955,36.5549677,139.8828776,April
True,4/1/1955,"Fukui, Japan",1/1/1955,35.9263502,136.6068127,April
False,4/10/1955,"Takayama, Japan",1/1/1955,36.1396246,137.2510322,April
False,4/8/1955,"Matsumoto, Japan",1/1/1955,36.2382047,137.9687141,April
True,3/29/1955,"Maebashi, Japan",1/1/1955,36.3893418,139.0632826,March
True,3/30/1955,"Kumagaya, Japan",1/1/1955,36.1472472,139.3886141,March
True,3/29/1955,"Mito, Japan",1/1/1955,36.3657792,140.4713933,March
False,3/28/1955,"Tsuruga, Japan",1/1/1955,35.6445135,136.0734634,March
True,3/27/1955,"Gifu, Japan",1/1/1955,35.7867449,137.0460777,March
True,3/29/1955,"Nagoya, Japan",1/1/1955,35.1851045,136.8998438,March
False,4/4/1955,"Iida, Japan",1/1/1955,35.5147101,137.8219519,April
True,3/29/1955,"Kofu, Japan",1/1/1955,35.6652481,138.5710441,March
True,3/25/1955,"Choshi, Japan",1/1/1955,35.7345338,140.8272667,March
True,3/31/1955,"Tsu, Japan",1/1/1955,34.7341973,136.5153283,March
False,3/27/1955,"Hamamatsu, Japan",1/1/1955,34.7109786,137.7259431,March
True,3/26/1955,"Shizuoka, Japan",1/1/1955,34.979149,138.38299,March
True,3/24/1955,"Tokyo, Japan",1/1/1955,35.6828387,139.7594549,March
False,3/21/1955,"Owase, Japan",1/1/1955,34.0707815,136.1911394,March
True,3/24/1955,"Yokohama, Japan",1/1/1955,35.444991,139.636768,March
False,,"Tateyama, Japan",1/1/1955,34.9965304,139.8699838,
False,,"Oshima, Japan",1/1/1955,34.737515,139.400251,
False,,"Miyakejima, Japan",1/1/1955,34.085378,139.521277314,
False,3/21/1955,"Hachijojima, Japan",1/1/1955,33.1024935,139.807693928,March
False,3/31/1955,"Saigo, Japan",1/1/1955,32.8728923,130.2439633,March
True,3/29/1955,"Matsue, Japan",1/1/1955,35.468115,133.048768,March
False,3/27/1955,"Yonago, Japan",1/1/1955,35.4276408,133.331459,March
True,3/29/1955,"Tottori, Japan",1/1/1955,35.3555075,133.8678525,March
False,4/1/1955,"Toyooka, Japan",1/1/1955,35.5446737,134.8201126,April
False,3/29/1955,"Maizuru, Japan",1/1/1955,35.4704853,135.34844,March
False,3/22/1955,"Hamada, Japan",1/1/1955,34.8991982,132.0799984,March
True,3/28/1955,"Kyoto, Japan",1/1/1955,35.021041,135.7556075,March
True,3/31/1955,"Hikone, Japan",1/1/1955,35.254276,136.215376,March
True,3/24/1955,"Hiroshima, Japan",1/1/1955,34.3916058,132.4518156,March
True,3/25/1955,"Okayama, Japan",1/1/1955,34.6553944,133.9194595,March
True,3/30/1955,"Kobe, Japan",1/1/1955,34.6932379,135.1943764,March
True,3/28/1955,"Osaka, Japan",1/1/1955,34.6198813,135.490357,March
False,3/30/1955,"Sumoto, Japan",1/1/1955,34.3389909,134.859985,March
True,3/30/1955,"Wakayama, Japan",1/1/1955,34.234617,135.1782181,March
False,,"Shionomisaki, Japan",1/1/1955,33.4377085,135.7549926,
True,3/27/1955,"Nara, Japan",1/1/1955,34.2963089,135.8816819,March
True,3/28/1955,"Matsuyama, Japan",1/1/1955,33.8395188,132.7653521,March
True,3/30/1955,"Takamatsu, Japan",1/1/1955,34.3425592,134.0465338,March
False,,"Uwajima, Japan",1/1/1955,33.2232315,132.5606514,
True,3/21/1955,"Kochi, Japan",1/1/1955,33.5680384,133.5394221,March
True,3/25/1955,"Tokushima, Japan",1/1/1955,34.0698307,134.5550353,March
True,3/24/1955,"Shimonoseki, Japan",1/1/1955,33.9577116,130.9415455,March
False,3/26/1955,"Izuhara, Japan",1/1/1955,34.2022882,129.288952,March
True,3/24/1955,"Fukuoka, Japan",1/1/1955,33.6251241,130.6180016,March
True,3/24/1955,"Saga, Japan",1/1/1955,33.2185408,130.1296585,March
True,3/25/1955,"Oita, Japan",1/1/1955,33.1819875,131.4270217,March
False,3/23/1955,"Fukue, Japan",1/1/1955,34.0471135,130.9156608,March
True,3/24/1955,"Nagasaki, Japan",1/1/1955,33.1154683,129.7874339,March
True,3/21/1955,"Kumamoto, Japan",1/1/1955,32.6450475,130.6341345,March
False,,"Nobeoka, Japan",1/1/1955,32.5823063,131.6649034,
True,3/29/1955,"Kagoshima, Japan",1/1/1955,31.5841689,130.543387,March
True,,"Miyazaki, Japan",1/1/1955,31.9076334,131.4204022,
False,,"Yakushima, Japan",1/1/1955,30.347925,130.524483244,
False,3/10/1955,"Tanegashima, Japan",1/1/1955,30.591848,130.995894840,March
True,1/27/1955,"Naze, Japan",1/1/1955,28.3934485,129.5337385,January
False,,"Yonaguni Island, Japan",1/1/1955,24.455595,122.987605976,
True,1/8/1955,"Ishigaki Island, Japan",1/1/1955,24.3618503,124.1543424,January
True,,"Miyakojima, Japan",1/1/1955,24.813957,125.305578983,
False,,"Kumejima, Japan",1/1/1955,26.341139,126.789052891,
True,,"Naha, Japan",1/1/1955,26.2122345,127.6791452,
False,,"Nago, Japan",1/1/1955,26.5914524,127.9773062,
False,1/7/1955,"Iriomote Island, Japan",1/1/1955,24.3464015,123.839163649,January
True,,"Minamidaitojima, Japan",1/1/1955,25.8423115,131.242871292,
True,5/12/1956,"Wakkanai, Japan",1/1/1956,45.4158108,141.6730309,May
False,5/8/1956,"Rumoi, Japan",1/1/1956,43.941029,141.6368171,May
True,5/7/1956,"Asahikawa, Japan",1/1/1956,43.7627501,142.3579263,May
True,5/9/1956,"Abashiri, Japan",1/1/1956,44.0206027,144.2732035,May
True,5/4/1956,"Sapporo, Japan",1/1/1956,43.061936,141.3542924,May
False,5/5/1956,"Iwamizawa, Japan",1/1/1956,43.1959915,141.7761132,May
True,5/5/1956,"Obihiro, Japan",1/1/1956,42.923809,143.1966324,May
True,,"Kushiro, Japan",1/1/1956,42.9906837,144.3820381,
False,,"Nemuro, Japan",1/1/1956,43.3301154,145.5829068,
True,5/8/1956,"Muroran, Japan",1/1/1956,42.3152461,140.9740731,May
False,5/7/1956,"Urakawa, Japan",1/1/1956,42.1684998,142.7680974,May
False,5/3/1956,"Esashi, Japan",1/1/1956,41.8690714,140.1272235,May
True,5/3/1956,"Hakodate, Japan",1/1/1956,41.768793,140.729008,May
False,5/13/1956,"Kutchan, Japan",1/1/1956,42.901741,140.7590818,May
False,5/5/1956,"Monbetsu, Japan",1/1/1956,44.3565151,143.3545224,May
False,,"Hiroo, Japan",1/1/1956,42.285532,143.3116162,
False,,"Shinjo, Japan",1/1/1956,38.7648577,140.3021449,
True,4/26/1956,"Aomori, Japan",1/1/1956,40.886943,140.590121,April
False,4/24/1956,"Hachinohe, Japan",1/1/1956,40.5122388,141.4882959,April
True,4/21/1956,"Akita, Japan",1/1/1956,39.6898802,140.342608,April
True,4/24/1956,"Morioka, Japan",1/1/1956,39.7021331,141.1545397,April
False,4/18/1956,"Miyako, Japan",1/1/1956,39.6395835,141.9461177,April
False,4/17/1956,"Sakata, Japan",1/1/1956,38.9147229,139.8364101,April
True,4/18/1956,"Yamagata, Japan",1/1/1956,38.2553393,140.3400205,April
True,4/16/1956,"Sendai, Japan",1/1/1956,38.2677554,140.8691498,April
True,4/14/1956,"Fukushima, Japan",1/1/1956,37.75454,140.4592144,April
False,4/16/1956,"Shirakawa, Japan",1/1/1956,37.1263397,140.2107192,April
False,4/12/1956,"Onahama, Japan",1/1/1956,36.9383759,140.8977807,April
False,4/13/1956,"Wajima, Japan",1/1/1956,37.3905644,136.8994281,April
False,4/14/1956,"Aikawa, Japan",1/1/1956,35.532347,139.297795,April
True,4/15/1956,"Niigata, Japan",1/1/1956,37.6452283,138.7669125,April
True,4/10/1956,"Kanazawa, Japan",1/1/1956,36.5780499,136.6480247,April
True,4/13/1956,"Toyama, Japan",1/1/1956,36.6957569,137.2136215,April
True,4/14/1956,"Nagano, Japan",1/1/1956,36.1143945,138.0319015,April
False,4/13/1956,"Takada, Japan",1/1/1956,34.516288,135.7448226,April
True,4/10/1956,"Utsunomiya, Japan",1/1/1956,36.5549677,139.8828776,April
True,4/9/1956,"Fukui, Japan",1/1/1956,35.9263502,136.6068127,April
False,4/19/1956,"Takayama, Japan",1/1/1956,36.1396246,137.2510322,April
False,4/15/1956,"Matsumoto, Japan",1/1/1956,36.2382047,137.9687141,April
True,4/6/1956,"Maebashi, Japan",1/1/1956,36.3893418,139.0632826,April
True,4/4/1956,"Kumagaya, Japan",1/1/1956,36.1472472,139.3886141,April
True,4/9/1956,"Mito, Japan",1/1/1956,36.3657792,140.4713933,April
False,4/4/1956,"Tsuruga, Japan",1/1/1956,35.6445135,136.0734634,April
True,3/31/1956,"Gifu, Japan",1/1/1956,35.7867449,137.0460777,March
True,3/29/1956,"Nagoya, Japan",1/1/1956,35.1851045,136.8998438,March
False,4/6/1956,"Iida, Japan",1/1/1956,35.5147101,137.8219519,April
True,3/29/1956,"Kofu, Japan",1/1/1956,35.6652481,138.5710441,March
True,3/29/1956,"Choshi, Japan",1/1/1956,35.7345338,140.8272667,March
True,4/3/1956,"Tsu, Japan",1/1/1956,34.7341973,136.5153283,April
False,4/5/1956,"Hamamatsu, Japan",1/1/1956,34.7109786,137.7259431,April
True,3/28/1956,"Shizuoka, Japan",1/1/1956,34.979149,138.38299,March
True,3/26/1956,"Tokyo, Japan",1/1/1956,35.6828387,139.7594549,March
False,3/28/1956,"Owase, Japan",1/1/1956,34.0707815,136.1911394,March
True,3/28/1956,"Yokohama, Japan",1/1/1956,35.444991,139.636768,March
False,,"Tateyama, Japan",1/1/1956,34.9965304,139.8699838,
False,3/20/1956,"Oshima, Japan",1/1/1956,34.737515,139.400251,March
False,,"Miyakejima, Japan",1/1/1956,34.085378,139.521277314,
False,3/28/1956,"Hachijojima, Japan",1/1/1956,33.1024935,139.807693928,March
False,4/6/1956,"Saigo, Japan",1/1/1956,32.8728923,130.2439633,April
True,4/5/1956,"Matsue, Japan",1/1/1956,35.468115,133.048768,April
False,4/7/1956,"Yonago, Japan",1/1/1956,35.4276408,133.331459,April
True,4/3/1956,"Tottori, Japan",1/1/1956,35.3555075,133.8678525,April
False,4/5/1956,"Toyooka, Japan",1/1/1956,35.5446737,134.8201126,April
False,3/31/1956,"Maizuru, Japan",1/1/1956,35.4704853,135.34844,March
False,4/2/1956,"Hamada, Japan",1/1/1956,34.8991982,132.0799984,April
True,4/1/1956,"Kyoto, Japan",1/1/1956,35.021041,135.7556075,April
True,4/5/1956,"Hikone, Japan",1/1/1956,35.254276,136.215376,April
True,4/2/1956,"Hiroshima, Japan",1/1/1956,34.3916058,132.4518156,April
True,3/29/1956,"Okayama, Japan",1/1/1956,34.6553944,133.9194595,March
True,3/30/1956,"Kobe, Japan",1/1/1956,34.6932379,135.1943764,March
True,3/30/1956,"Osaka, Japan",1/1/1956,34.6198813,135.490357,March
False,3/29/1956,"Sumoto, Japan",1/1/1956,34.3389909,134.859985,March
True,3/27/1956,"Wakayama, Japan",1/1/1956,34.234617,135.1782181,March
False,,"Shionomisaki, Japan",1/1/1956,33.4377085,135.7549926,
True,4/2/1956,"Nara, Japan",1/1/1956,34.2963089,135.8816819,April
True,3/28/1956,"Matsuyama, Japan",1/1/1956,33.8395188,132.7653521,March
True,4/1/1956,"Takamatsu, Japan",1/1/1956,34.3425592,134.0465338,April
False,,"Uwajima, Japan",1/1/1956,33.2232315,132.5606514,
True,3/24/1956,"Kochi, Japan",1/1/1956,33.5680384,133.5394221,March
True,3/27/1956,"Tokushima, Japan",1/1/1956,34.0698307,134.5550353,March
True,4/4/1956,"Shimonoseki, Japan",1/1/1956,33.9577116,130.9415455,April
False,4/6/1956,"Izuhara, Japan",1/1/1956,34.2022882,129.288952,April
True,4/2/1956,"Fukuoka, Japan",1/1/1956,33.6251241,130.6180016,April
True,3/29/1956,"Saga, Japan",1/1/1956,33.2185408,130.1296585,March
True,3/31/1956,"Oita, Japan",1/1/1956,33.1819875,131.4270217,March
False,3/30/1956,"Fukue, Japan",1/1/1956,34.0471135,130.9156608,March
True,3/28/1956,"Nagasaki, Japan",1/1/1956,33.1154683,129.7874339,March
True,3/25/1956,"Kumamoto, Japan",1/1/1956,32.6450475,130.6341345,March
False,,"Nobeoka, Japan",1/1/1956,32.5823063,131.6649034,
True,3/27/1956,"Kagoshima, Japan",1/1/1956,31.5841689,130.543387,March
True,,"Miyazaki, Japan",1/1/1956,31.9076334,131.4204022,
False,,"Yakushima, Japan",1/1/1956,30.347925,130.524483244,
False,3/28/1956,"Tanegashima, Japan",1/1/1956,30.591848,130.995894840,March
True,1/15/1956,"Naze, Japan",1/1/1956,28.3934485,129.5337385,January
False,,"Yonaguni Island, Japan",1/1/1956,24.455595,122.987605976,
True,1/5/1956,"Ishigaki Island, Japan",1/1/1956,24.3618503,124.1543424,January
True,,"Miyakojima, Japan",1/1/1956,24.813957,125.305578983,
False,,"Kumejima, Japan",1/1/1956,26.341139,126.789052891,
True,,"Naha, Japan",1/1/1956,26.2122345,127.6791452,
False,,"Nago, Japan",1/1/1956,26.5914524,127.9773062,
False,,"Iriomote Island, Japan",1/1/1956,24.3464015,123.839163649,
True,,"Minamidaitojima, Japan",1/1/1956,25.8423115,131.242871292,
True,5/18/1957,"Wakkanai, Japan",1/1/1957,45.4158108,141.6730309,May
False,5/10/1957,"Rumoi, Japan",1/1/1957,43.941029,141.6368171,May
True,5/9/1957,"Asahikawa, Japan",1/1/1957,43.7627501,142.3579263,May
True,,"Abashiri, Japan",1/1/1957,44.0206027,144.2732035,
True,5/9/1957,"Sapporo, Japan",1/1/1957,43.061936,141.3542924,May
False,5/8/1957,"Iwamizawa, Japan",1/1/1957,43.1959915,141.7761132,May
True,5/9/1957,"Obihiro, Japan",1/1/1957,42.923809,143.1966324,May
True,,"Kushiro, Japan",1/1/1957,42.9906837,144.3820381,
False,,"Nemuro, Japan",1/1/1957,43.3301154,145.5829068,
True,5/8/1957,"Muroran, Japan",1/1/1957,42.3152461,140.9740731,May
False,5/14/1957,"Urakawa, Japan",1/1/1957,42.1684998,142.7680974,May
False,5/4/1957,"Esashi, Japan",1/1/1957,41.8690714,140.1272235,May
True,5/8/1957,"Hakodate, Japan",1/1/1957,41.768793,140.729008,May
False,5/15/1957,"Kutchan, Japan",1/1/1957,42.901741,140.7590818,May
False,5/11/1957,"Monbetsu, Japan",1/1/1957,44.3565151,143.3545224,May
False,,"Hiroo, Japan",1/1/1957,42.285532,143.3116162,
False,,"Shinjo, Japan",1/1/1957,38.7648577,140.3021449,
True,5/1/1957,"Aomori, Japan",1/1/1957,40.886943,140.590121,May
False,4/27/1957,"Hachinohe, Japan",1/1/1957,40.5122388,141.4882959,April
True,4/24/1957,"Akita, Japan",1/1/1957,39.6898802,140.342608,April
True,4/27/1957,"Morioka, Japan",1/1/1957,39.7021331,141.1545397,April
False,4/20/1957,"Miyako, Japan",1/1/1957,39.6395835,141.9461177,April
False,4/17/1957,"Sakata, Japan",1/1/1957,38.9147229,139.8364101,April
True,4/20/1957,"Yamagata, Japan",1/1/1957,38.2553393,140.3400205,April
True,4/16/1957,"Sendai, Japan",1/1/1957,38.2677554,140.8691498,April
True,4/15/1957,"Fukushima, Japan",1/1/1957,37.75454,140.4592144,April
False,4/16/1957,"Shirakawa, Japan",1/1/1957,37.1263397,140.2107192,April
False,4/11/1957,"Onahama, Japan",1/1/1957,36.9383759,140.8977807,April
False,4/15/1957,"Wajima, Japan",1/1/1957,37.3905644,136.8994281,April
False,4/16/1957,"Aikawa, Japan",1/1/1957,35.532347,139.297795,April
True,4/18/1957,"Niigata, Japan",1/1/1957,37.6452283,138.7669125,April
True,4/8/1957,"Kanazawa, Japan",1/1/1957,36.5780499,136.6480247,April
True,4/16/1957,"Toyama, Japan",1/1/1957,36.6957569,137.2136215,April
True,4/17/1957,"Nagano, Japan",1/1/1957,36.1143945,138.0319015,April
False,4/16/1957,"Takada, Japan",1/1/1957,34.516288,135.7448226,April
True,4/9/1957,"Utsunomiya, Japan",1/1/1957,36.5549677,139.8828776,April
True,4/11/1957,"Fukui, Japan",1/1/1957,35.9263502,136.6068127,April
False,4/21/1957,"Takayama, Japan",1/1/1957,36.1396246,137.2510322,April
False,4/17/1957,"Matsumoto, Japan",1/1/1957,36.2382047,137.9687141,April
True,4/6/1957,"Maebashi, Japan",1/1/1957,36.3893418,139.0632826,April
True,4/7/1957,"Kumagaya, Japan",1/1/1957,36.1472472,139.3886141,April
True,4/8/1957,"Mito, Japan",1/1/1957,36.3657792,140.4713933,April
False,4/11/1957,"Tsuruga, Japan",1/1/1957,35.6445135,136.0734634,April
True,4/8/1957,"Gifu, Japan",1/1/1957,35.7867449,137.0460777,April
True,4/8/1957,"Nagoya, Japan",1/1/1957,35.1851045,136.8998438,April
False,4/12/1957,"Iida, Japan",1/1/1957,35.5147101,137.8219519,April
True,4/7/1957,"Kofu, Japan",1/1/1957,35.6652481,138.5710441,April
True,4/5/1957,"Choshi, Japan",1/1/1957,35.7345338,140.8272667,April
True,4/8/1957,"Tsu, Japan",1/1/1957,34.7341973,136.5153283,April
False,4/7/1957,"Hamamatsu, Japan",1/1/1957,34.7109786,137.7259431,April
True,4/1/1957,"Shizuoka, Japan",1/1/1957,34.979149,138.38299,April
True,4/2/1957,"Tokyo, Japan",1/1/1957,35.6828387,139.7594549,April
False,4/5/1957,"Owase, Japan",1/1/1957,34.0707815,136.1911394,April
True,4/3/1957,"Yokohama, Japan",1/1/1957,35.444991,139.636768,April
False,,"Tateyama, Japan",1/1/1957,34.9965304,139.8699838,
False,3/26/1957,"Oshima, Japan",1/1/1957,34.737515,139.400251,March
False,,"Miyakejima, Japan",1/1/1957,34.085378,139.521277314,
False,4/2/1957,"Hachijojima, Japan",1/1/1957,33.1024935,139.807693928,April
False,4/9/1957,"Saigo, Japan",1/1/1957,32.8728923,130.2439633,April
True,4/10/1957,"Matsue, Japan",1/1/1957,35.468115,133.048768,April
False,4/10/1957,"Yonago, Japan",1/1/1957,35.4276408,133.331459,April
True,4/10/1957,"Tottori, Japan",1/1/1957,35.3555075,133.8678525,April
False,4/8/1957,"Toyooka, Japan",1/1/1957,35.5446737,134.8201126,April
False,4/11/1957,"Maizuru, Japan",1/1/1957,35.4704853,135.34844,April
False,4/5/1957,"Hamada, Japan",1/1/1957,34.8991982,132.0799984,April
True,4/7/1957,"Kyoto, Japan",1/1/1957,35.021041,135.7556075,April
True,4/10/1957,"Hikone, Japan",1/1/1957,35.254276,136.215376,April
True,4/5/1957,"Hiroshima, Japan",1/1/1957,34.3916058,132.4518156,April
True,4/6/1957,"Okayama, Japan",1/1/1957,34.6553944,133.9194595,April
True,4/8/1957,"Kobe, Japan",1/1/1957,34.6932379,135.1943764,April
True,4/7/1957,"Osaka, Japan",1/1/1957,34.6198813,135.490357,April
False,4/6/1957,"Sumoto, Japan",1/1/1957,34.3389909,134.859985,April
True,4/4/1957,"Wakayama, Japan",1/1/1957,34.234617,135.1782181,April
False,,"Shionomisaki, Japan",1/1/1957,33.4377085,135.7549926,
True,4/7/1957,"Nara, Japan",1/1/1957,34.2963089,135.8816819,April
True,4/6/1957,"Matsuyama, Japan",1/1/1957,33.8395188,132.7653521,April
True,4/3/1957,"Takamatsu, Japan",1/1/1957,34.3425592,134.0465338,April
False,,"Uwajima, Japan",1/1/1957,33.2232315,132.5606514,
True,4/2/1957,"Kochi, Japan",1/1/1957,33.5680384,133.5394221,April
True,4/5/1957,"Tokushima, Japan",1/1/1957,34.0698307,134.5550353,April
True,4/6/1957,"Shimonoseki, Japan",1/1/1957,33.9577116,130.9415455,April
False,4/5/1957,"Izuhara, Japan",1/1/1957,34.2022882,129.288952,April
True,4/1/1957,"Fukuoka, Japan",1/1/1957,33.6251241,130.6180016,April
True,3/31/1957,"Saga, Japan",1/1/1957,33.2185408,130.1296585,March
True,4/6/1957,"Oita, Japan",1/1/1957,33.1819875,131.4270217,April
False,4/4/1957,"Fukue, Japan",1/1/1957,34.0471135,130.9156608,April
True,3/30/1957,"Nagasaki, Japan",1/1/1957,33.1154683,129.7874339,March
True,3/29/1957,"Kumamoto, Japan",1/1/1957,32.6450475,130.6341345,March
False,,"Nobeoka, Japan",1/1/1957,32.5823063,131.6649034,
True,4/1/1957,"Kagoshima, Japan",1/1/1957,31.5841689,130.543387,April
True,,"Miyazaki, Japan",1/1/1957,31.9076334,131.4204022,
False,,"Yakushima, Japan",1/1/1957,30.347925,130.524483244,
False,,"Tanegashima, Japan",1/1/1957,30.591848,130.995894840,
True,1/14/1957,"Naze, Japan",1/1/1957,28.3934485,129.5337385,January
False,,"Yonaguni Island, Japan",1/1/1957,24.455595,122.987605976,
True,1/18/1957,"Ishigaki Island, Japan",1/1/1957,24.3618503,124.1543424,January
True,,"Miyakojima, Japan",1/1/1957,24.813957,125.305578983,
False,,"Kumejima, Japan",1/1/1957,26.341139,126.789052891,
True,,"Naha, Japan",1/1/1957,26.2122345,127.6791452,
False,,"Nago, Japan",1/1/1957,26.5914524,127.9773062,
False,1/16/1957,"Iriomote Island, Japan",1/1/1957,24.3464015,123.839163649,January
True,,"Minamidaitojima, Japan",1/1/1957,25.8423115,131.242871292,
True,5/23/1958,"Wakkanai, Japan",1/1/1958,45.4158108,141.6730309,May
False,5/12/1958,"Rumoi, Japan",1/1/1958,43.941029,141.6368171,May
True,5/10/1958,"Asahikawa, Japan",1/1/1958,43.7627501,142.3579263,May
True,,"Abashiri, Japan",1/1/1958,44.0206027,144.2732035,
True,,"Sapporo, Japan",1/1/1958,43.061936,141.3542924,
False,5/10/1958,"Iwamizawa, Japan",1/1/1958,43.1959915,141.7761132,May
True,5/13/1958,"Obihiro, Japan",1/1/1958,42.923809,143.1966324,May
True,,"Kushiro, Japan",1/1/1958,42.9906837,144.3820381,
False,,"Nemuro, Japan",1/1/1958,43.3301154,145.5829068,
True,5/12/1958,"Muroran, Japan",1/1/1958,42.3152461,140.9740731,May
False,5/12/1958,"Urakawa, Japan",1/1/1958,42.1684998,142.7680974,May
False,5/5/1958,"Esashi, Japan",1/1/1958,41.8690714,140.1272235,May
True,5/4/1958,"Hakodate, Japan",1/1/1958,41.768793,140.729008,May
False,5/16/1958,"Kutchan, Japan",1/1/1958,42.901741,140.7590818,May
False,5/19/1958,"Monbetsu, Japan",1/1/1958,44.3565151,143.3545224,May
False,5/9/1958,"Hiroo, Japan",1/1/1958,42.285532,143.3116162,May
False,4/23/1958,"Shinjo, Japan",1/1/1958,38.7648577,140.3021449,April
True,4/29/1958,"Aomori, Japan",1/1/1958,40.886943,140.590121,April
False,4/24/1958,"Hachinohe, Japan",1/1/1958,40.5122388,141.4882959,April
True,4/22/1958,"Akita, Japan",1/1/1958,39.6898802,140.342608,April
True,4/24/1958,"Morioka, Japan",1/1/1958,39.7021331,141.1545397,April
False,4/19/1958,"Miyako, Japan",1/1/1958,39.6395835,141.9461177,April
False,4/13/1958,"Sakata, Japan",1/1/1958,38.9147229,139.8364101,April
True,4/17/1958,"Yamagata, Japan",1/1/1958,38.2553393,140.3400205,April
True,4/10/1958,"Sendai, Japan",1/1/1958,38.2677554,140.8691498,April
True,4/7/1958,"Fukushima, Japan",1/1/1958,37.75454,140.4592144,April
False,4/10/1958,"Shirakawa, Japan",1/1/1958,37.1263397,140.2107192,April
False,4/7/1958,"Onahama, Japan",1/1/1958,36.9383759,140.8977807,April
False,4/7/1958,"Wajima, Japan",1/1/1958,37.3905644,136.8994281,April
False,4/8/1958,"Aikawa, Japan",1/1/1958,35.532347,139.297795,April
True,4/13/1958,"Niigata, Japan",1/1/1958,37.6452283,138.7669125,April
True,4/1/1958,"Kanazawa, Japan",1/1/1958,36.5780499,136.6480247,April
True,4/5/1958,"Toyama, Japan",1/1/1958,36.6957569,137.2136215,April
True,4/9/1958,"Nagano, Japan",1/1/1958,36.1143945,138.0319015,April
False,4/6/1958,"Takada, Japan",1/1/1958,34.516288,135.7448226,April
True,4/6/1958,"Utsunomiya, Japan",1/1/1958,36.5549677,139.8828776,April
True,4/3/1958,"Fukui, Japan",1/1/1958,35.9263502,136.6068127,April
False,4/14/1958,"Takayama, Japan",1/1/1958,36.1396246,137.2510322,April
False,4/8/1958,"Matsumoto, Japan",1/1/1958,36.2382047,137.9687141,April
True,4/1/1958,"Maebashi, Japan",1/1/1958,36.3893418,139.0632826,April
True,4/1/1958,"Kumagaya, Japan",1/1/1958,36.1472472,139.3886141,April
True,4/4/1958,"Mito, Japan",1/1/1958,36.3657792,140.4713933,April
False,4/5/1958,"Tsuruga, Japan",1/1/1958,35.6445135,136.0734634,April
True,3/28/1958,"Gifu, Japan",1/1/1958,35.7867449,137.0460777,March
True,3/25/1958,"Nagoya, Japan",1/1/1958,35.1851045,136.8998438,March
False,4/5/1958,"Iida, Japan",1/1/1958,35.5147101,137.8219519,April
True,4/1/1958,"Kofu, Japan",1/1/1958,35.6652481,138.5710441,April
True,4/1/1958,"Choshi, Japan",1/1/1958,35.7345338,140.8272667,April
True,4/6/1958,"Tsu, Japan",1/1/1958,34.7341973,136.5153283,April
False,4/2/1958,"Hamamatsu, Japan",1/1/1958,34.7109786,137.7259431,April
True,3/25/1958,"Shizuoka, Japan",1/1/1958,34.979149,138.38299,March
True,3/30/1958,"Tokyo, Japan",1/1/1958,35.6828387,139.7594549,March
False,3/28/1958,"Owase, Japan",1/1/1958,34.0707815,136.1911394,March
True,3/25/1958,"Yokohama, Japan",1/1/1958,35.444991,139.636768,March
False,,"Tateyama, Japan",1/1/1958,34.9965304,139.8699838,
False,,"Oshima, Japan",1/1/1958,34.737515,139.400251,
False,,"Miyakejima, Japan",1/1/1958,34.085378,139.521277314,
False,4/4/1958,"Hachijojima, Japan",1/1/1958,33.1024935,139.807693928,April
False,4/1/1958,"Saigo, Japan",1/1/1958,32.8728923,130.2439633,April
True,4/5/1958,"Matsue, Japan",1/1/1958,35.468115,133.048768,April
False,4/4/1958,"Yonago, Japan",1/1/1958,35.4276408,133.331459,April
True,4/4/1958,"Tottori, Japan",1/1/1958,35.3555075,133.8678525,April
False,4/5/1958,"Toyooka, Japan",1/1/1958,35.5446737,134.8201126,April
False,4/4/1958,"Maizuru, Japan",1/1/1958,35.4704853,135.34844,April
False,3/25/1958,"Hamada, Japan",1/1/1958,34.8991982,132.0799984,March
True,4/2/1958,"Kyoto, Japan",1/1/1958,35.021041,135.7556075,April
True,4/5/1958,"Hikone, Japan",1/1/1958,35.254276,136.215376,April
True,3/26/1958,"Hiroshima, Japan",1/1/1958,34.3916058,132.4518156,March
True,4/1/1958,"Okayama, Japan",1/1/1958,34.6553944,133.9194595,April
True,4/2/1958,"Kobe, Japan",1/1/1958,34.6932379,135.1943764,April
True,3/27/1958,"Osaka, Japan",1/1/1958,34.6198813,135.490357,March
False,3/28/1958,"Sumoto, Japan",1/1/1958,34.3389909,134.859985,March
True,3/24/1958,"Wakayama, Japan",1/1/1958,34.234617,135.1782181,March
False,3/27/1958,"Shionomisaki, Japan",1/1/1958,33.4377085,135.7549926,March
True,4/2/1958,"Nara, Japan",1/1/1958,34.2963089,135.8816819,April
True,4/1/1958,"Matsuyama, Japan",1/1/1958,33.8395188,132.7653521,April
True,4/1/1958,"Takamatsu, Japan",1/1/1958,34.3425592,134.0465338,April
False,,"Uwajima, Japan",1/1/1958,33.2232315,132.5606514,
True,3/24/1958,"Kochi, Japan",1/1/1958,33.5680384,133.5394221,March
True,3/28/1958,"Tokushima, Japan",1/1/1958,34.0698307,134.5550353,March
True,3/25/1958,"Shimonoseki, Japan",1/1/1958,33.9577116,130.9415455,March
False,3/24/1958,"Izuhara, Japan",1/1/1958,34.2022882,129.288952,March
True,3/25/1958,"Fukuoka, Japan",1/1/1958,33.6251241,130.6180016,March
True,3/24/1958,"Saga, Japan",1/1/1958,33.2185408,130.1296585,March
True,3/27/1958,"Oita, Japan",1/1/1958,33.1819875,131.4270217,March
False,3/31/1958,"Fukue, Japan",1/1/1958,34.0471135,130.9156608,March
True,3/22/1958,"Nagasaki, Japan",1/1/1958,33.1154683,129.7874339,March
True,3/24/1958,"Kumamoto, Japan",1/1/1958,32.6450475,130.6341345,March
False,,"Nobeoka, Japan",1/1/1958,32.5823063,131.6649034,
True,3/26/1958,"Kagoshima, Japan",1/1/1958,31.5841689,130.543387,March
True,,"Miyazaki, Japan",1/1/1958,31.9076334,131.4204022,
False,,"Yakushima, Japan",1/1/1958,30.347925,130.524483244,
False,3/29/1958,"Tanegashima, Japan",1/1/1958,30.591848,130.995894840,March
True,,"Naze, Japan",1/1/1958,28.3934485,129.5337385,
False,,"Yonaguni Island, Japan",1/1/1958,24.455595,122.987605976,
True,1/10/1958,"Ishigaki Island, Japan",1/1/1958,24.3618503,124.1543424,January
True,,"Miyakojima, Japan",1/1/1958,24.813957,125.305578983,
False,,"Kumejima, Japan",1/1/1958,26.341139,126.789052891,
True,,"Naha, Japan",1/1/1958,26.2122345,127.6791452,
False,,"Nago, Japan",1/1/1958,26.5914524,127.9773062,
False,,"Iriomote Island, Japan",1/1/1958,24.3464015,123.839163649,
True,,"Minamidaitojima, Japan",1/1/1958,25.8423115,131.242871292,
True,5/3/1959,"Wakkanai, Japan",1/1/1959,45.4158108,141.6730309,May
False,,"Rumoi, Japan",1/1/1959,43.941029,141.6368171,
True,5/8/1959,"Asahikawa, Japan",1/1/1959,43.7627501,142.3579263,May
True,5/3/1959,"Abashiri, Japan",1/1/1959,44.0206027,144.2732035,May
True,5/5/1959,"Sapporo, Japan",1/1/1959,43.061936,141.3542924,May
False,4/28/1959,"Iwamizawa, Japan",1/1/1959,43.1959915,141.7761132,April
True,5/1/1959,"Obihiro, Japan",1/1/1959,42.923809,143.1966324,May
True,,"Kushiro, Japan",1/1/1959,42.9906837,144.3820381,
False,,"Nemuro, Japan",1/1/1959,43.3301154,145.5829068,
True,4/27/1959,"Muroran, Japan",1/1/1959,42.3152461,140.9740731,April
False,5/2/1959,"Urakawa, Japan",1/1/1959,42.1684998,142.7680974,May
False,4/27/1959,"Esashi, Japan",1/1/1959,41.8690714,140.1272235,April
True,4/26/1959,"Hakodate, Japan",1/1/1959,41.768793,140.729008,April
False,5/2/1959,"Kutchan, Japan",1/1/1959,42.901741,140.7590818,May
False,5/1/1959,"Monbetsu, Japan",1/1/1959,44.3565151,143.3545224,May
False,4/29/1959,"Hiroo, Japan",1/1/1959,42.285532,143.3116162,April
False,4/15/1959,"Shinjo, Japan",1/1/1959,38.7648577,140.3021449,April
True,4/19/1959,"Aomori, Japan",1/1/1959,40.886943,140.590121,April
False,4/21/1959,"Hachinohe, Japan",1/1/1959,40.5122388,141.4882959,April
True,4/9/1959,"Akita, Japan",1/1/1959,39.6898802,140.342608,April
True,4/18/1959,"Morioka, Japan",1/1/1959,39.7021331,141.1545397,April
False,4/14/1959,"Miyako, Japan",1/1/1959,39.6395835,141.9461177,April
False,4/7/1959,"Sakata, Japan",1/1/1959,38.9147229,139.8364101,April
True,4/9/1959,"Yamagata, Japan",1/1/1959,38.2553393,140.3400205,April
True,4/4/1959,"Sendai, Japan",1/1/1959,38.2677554,140.8691498,April
True,4/3/1959,"Fukushima, Japan",1/1/1959,37.75454,140.4592144,April
False,4/8/1959,"Shirakawa, Japan",1/1/1959,37.1263397,140.2107192,April
False,3/30/1959,"Onahama, Japan",1/1/1959,36.9383759,140.8977807,March
False,4/1/1959,"Wajima, Japan",1/1/1959,37.3905644,136.8994281,April
False,4/3/1959,"Aikawa, Japan",1/1/1959,35.532347,139.297795,April
True,4/5/1959,"Niigata, Japan",1/1/1959,37.6452283,138.7669125,April
True,3/27/1959,"Kanazawa, Japan",1/1/1959,36.5780499,136.6480247,March
True,3/31/1959,"Toyama, Japan",1/1/1959,36.6957569,137.2136215,March
True,4/5/1959,"Nagano, Japan",1/1/1959,36.1143945,138.0319015,April
False,4/3/1959,"Takada, Japan",1/1/1959,34.516288,135.7448226,April
True,3/31/1959,"Utsunomiya, Japan",1/1/1959,36.5549677,139.8828776,March
True,3/30/1959,"Fukui, Japan",1/1/1959,35.9263502,136.6068127,March
False,4/8/1959,"Takayama, Japan",1/1/1959,36.1396246,137.2510322,April
False,4/5/1959,"Matsumoto, Japan",1/1/1959,36.2382047,137.9687141,April
True,3/24/1959,"Maebashi, Japan",1/1/1959,36.3893418,139.0632826,March
True,3/26/1959,"Kumagaya, Japan",1/1/1959,36.1472472,139.3886141,March
True,3/30/1959,"Mito, Japan",1/1/1959,36.3657792,140.4713933,March
False,3/28/1959,"Tsuruga, Japan",1/1/1959,35.6445135,136.0734634,March
True,3/22/1959,"Gifu, Japan",1/1/1959,35.7867449,137.0460777,March
True,3/23/1959,"Nagoya, Japan",1/1/1959,35.1851045,136.8998438,March
False,3/27/1959,"Iida, Japan",1/1/1959,35.5147101,137.8219519,March
True,3/24/1959,"Kofu, Japan",1/1/1959,35.6652481,138.5710441,March
True,3/23/1959,"Choshi, Japan",1/1/1959,35.7345338,140.8272667,March
True,3/23/1959,"Tsu, Japan",1/1/1959,34.7341973,136.5153283,March
False,3/28/1959,"Hamamatsu, Japan",1/1/1959,34.7109786,137.7259431,March
True,3/20/1959,"Shizuoka, Japan",1/1/1959,34.979149,138.38299,March
True,3/24/1959,"Tokyo, Japan",1/1/1959,35.6828387,139.7594549,March
False,3/18/1959,"Owase, Japan",1/1/1959,34.0707815,136.1911394,March
True,3/20/1959,"Yokohama, Japan",1/1/1959,35.444991,139.636768,March
False,,"Tateyama, Japan",1/1/1959,34.9965304,139.8699838,
False,3/21/1959,"Oshima, Japan",1/1/1959,34.737515,139.400251,March
False,,"Miyakejima, Japan",1/1/1959,34.085378,139.521277314,
False,4/1/1959,"Hachijojima, Japan",1/1/1959,33.1024935,139.807693928,April
False,3/25/1959,"Saigo, Japan",1/1/1959,32.8728923,130.2439633,March
True,3/27/1959,"Matsue, Japan",1/1/1959,35.468115,133.048768,March
False,3/26/1959,"Yonago, Japan",1/1/1959,35.4276408,133.331459,March
True,3/28/1959,"Tottori, Japan",1/1/1959,35.3555075,133.8678525,March
False,3/25/1959,"Toyooka, Japan",1/1/1959,35.5446737,134.8201126,March
False,3/27/1959,"Maizuru, Japan",1/1/1959,35.4704853,135.34844,March
False,3/23/1959,"Hamada, Japan",1/1/1959,34.8991982,132.0799984,March
True,3/23/1959,"Kyoto, Japan",1/1/1959,35.021041,135.7556075,March
True,3/29/1959,"Hikone, Japan",1/1/1959,35.254276,136.215376,March
True,3/21/1959,"Hiroshima, Japan",1/1/1959,34.3916058,132.4518156,March
True,3/23/1959,"Okayama, Japan",1/1/1959,34.6553944,133.9194595,March
True,3/27/1959,"Kobe, Japan",1/1/1959,34.6932379,135.1943764,March
True,3/25/1959,"Osaka, Japan",1/1/1959,34.6198813,135.490357,March
False,3/23/1959,"Sumoto, Japan",1/1/1959,34.3389909,134.859985,March
True,3/19/1959,"Wakayama, Japan",1/1/1959,34.234617,135.1782181,March
False,3/10/1959,"Shionomisaki, Japan",1/1/1959,33.4377085,135.7549926,March
True,3/24/1959,"Nara, Japan",1/1/1959,34.2963089,135.8816819,March
True,3/23/1959,"Matsuyama, Japan",1/1/1959,33.8395188,132.7653521,March
True,3/26/1959,"Takamatsu, Japan",1/1/1959,34.3425592,134.0465338,March
False,,"Uwajima, Japan",1/1/1959,33.2232315,132.5606514,
True,3/21/1959,"Kochi, Japan",1/1/1959,33.5680384,133.5394221,March
True,3/26/1959,"Tokushima, Japan",1/1/1959,34.0698307,134.5550353,March
True,3/23/1959,"Shimonoseki, Japan",1/1/1959,33.9577116,130.9415455,March
False,3/22/1959,"Izuhara, Japan",1/1/1959,34.2022882,129.288952,March
True,3/25/1959,"Fukuoka, Japan",1/1/1959,33.6251241,130.6180016,March
True,3/22/1959,"Saga, Japan",1/1/1959,33.2185408,130.1296585,March
True,3/28/1959,"Oita, Japan",1/1/1959,33.1819875,131.4270217,March
False,3/20/1959,"Fukue, Japan",1/1/1959,34.0471135,130.9156608,March
True,3/22/1959,"Nagasaki, Japan",1/1/1959,33.1154683,129.7874339,March
True,3/19/1959,"Kumamoto, Japan",1/1/1959,32.6450475,130.6341345,March
False,,"Nobeoka, Japan",1/1/1959,32.5823063,131.6649034,
True,3/23/1959,"Kagoshima, Japan",1/1/1959,31.5841689,130.543387,March
True,,"Miyazaki, Japan",1/1/1959,31.9076334,131.4204022,
False,,"Yakushima, Japan",1/1/1959,30.347925,130.524483244,
False,4/3/1959,"Tanegashima, Japan",1/1/1959,30.591848,130.995894840,April
True,1/28/1959,"Naze, Japan",1/1/1959,28.3934485,129.5337385,January
False,,"Yonaguni Island, Japan",1/1/1959,24.455595,122.987605976,
True,,"Ishigaki Island, Japan",1/1/1959,24.3618503,124.1543424,
True,,"Miyakojima, Japan",1/1/1959,24.813957,125.305578983,
False,,"Kumejima, Japan",1/1/1959,26.341139,126.789052891,
True,,"Naha, Japan",1/1/1959,26.2122345,127.6791452,
False,,"Nago, Japan",1/1/1959,26.5914524,127.9773062,
False,1/12/1959,"Iriomote Island, Japan",1/1/1959,24.3464015,123.839163649,January
True,,"Minamidaitojima, Japan",1/1/1959,25.8423115,131.242871292,
True,5/19/1960,"Wakkanai, Japan",1/1/1960,45.4158108,141.6730309,May
False,,"Rumoi, Japan",1/1/1960,43.941029,141.6368171,
True,5/13/1960,"Asahikawa, Japan",1/1/1960,43.7627501,142.3579263,May
True,,"Abashiri, Japan",1/1/1960,44.0206027,144.2732035,
True,5/5/1960,"Sapporo, Japan",1/1/1960,43.061936,141.3542924,May
False,5/11/1960,"Iwamizawa, Japan",1/1/1960,43.1959915,141.7761132,May
True,5/11/1960,"Obihiro, Japan",1/1/1960,42.923809,143.1966324,May
True,,"Kushiro, Japan",1/1/1960,42.9906837,144.3820381,
False,5/25/1960,"Nemuro, Japan",1/1/1960,43.3301154,145.5829068,May
True,5/8/1960,"Muroran, Japan",1/1/1960,42.3152461,140.9740731,May
False,5/13/1960,"Urakawa, Japan",1/1/1960,42.1684998,142.7680974,May
False,5/2/1960,"Esashi, Japan",1/1/1960,41.8690714,140.1272235,May
True,5/4/1960,"Hakodate, Japan",1/1/1960,41.768793,140.729008,May
False,5/17/1960,"Kutchan, Japan",1/1/1960,42.901741,140.7590818,May
False,5/15/1960,"Monbetsu, Japan",1/1/1960,44.3565151,143.3545224,May
False,5/9/1960,"Hiroo, Japan",1/1/1960,42.285532,143.3116162,May
False,4/23/1960,"Shinjo, Japan",1/1/1960,38.7648577,140.3021449,April
True,4/27/1960,"Aomori, Japan",1/1/1960,40.886943,140.590121,April
False,4/27/1960,"Hachinohe, Japan",1/1/1960,40.5122388,141.4882959,April
True,4/21/1960,"Akita, Japan",1/1/1960,39.6898802,140.342608,April
True,4/27/1960,"Morioka, Japan",1/1/1960,39.7021331,141.1545397,April
False,4/20/1960,"Miyako, Japan",1/1/1960,39.6395835,141.9461177,April
False,4/14/1960,"Sakata, Japan",1/1/1960,38.9147229,139.8364101,April
True,4/17/1960,"Yamagata, Japan",1/1/1960,38.2553393,140.3400205,April
True,4/12/1960,"Sendai, Japan",1/1/1960,38.2677554,140.8691498,April
True,4/8/1960,"Fukushima, Japan",1/1/1960,37.75454,140.4592144,April
False,4/11/1960,"Shirakawa, Japan",1/1/1960,37.1263397,140.2107192,April
False,4/5/1960,"Onahama, Japan",1/1/1960,36.9383759,140.8977807,April
False,4/6/1960,"Wajima, Japan",1/1/1960,37.3905644,136.8994281,April
False,4/6/1960,"Aikawa, Japan",1/1/1960,35.532347,139.297795,April
True,4/11/1960,"Niigata, Japan",1/1/1960,37.6452283,138.7669125,April
True,3/29/1960,"Kanazawa, Japan",1/1/1960,36.5780499,136.6480247,March
True,4/5/1960,"Toyama, Japan",1/1/1960,36.6957569,137.2136215,April
True,4/13/1960,"Nagano, Japan",1/1/1960,36.1143945,138.0319015,April
False,4/5/1960,"Takada, Japan",1/1/1960,34.516288,135.7448226,April
True,4/1/1960,"Utsunomiya, Japan",1/1/1960,36.5549677,139.8828776,April
True,4/1/1960,"Fukui, Japan",1/1/1960,35.9263502,136.6068127,April
False,4/12/1960,"Takayama, Japan",1/1/1960,36.1396246,137.2510322,April
False,4/8/1960,"Matsumoto, Japan",1/1/1960,36.2382047,137.9687141,April
True,3/27/1960,"Maebashi, Japan",1/1/1960,36.3893418,139.0632826,March
True,3/28/1960,"Kumagaya, Japan",1/1/1960,36.1472472,139.3886141,March
True,4/4/1960,"Mito, Japan",1/1/1960,36.3657792,140.4713933,April
False,3/30/1960,"Tsuruga, Japan",1/1/1960,35.6445135,136.0734634,March
True,3/23/1960,"Gifu, Japan",1/1/1960,35.7867449,137.0460777,March
True,3/22/1960,"Nagoya, Japan",1/1/1960,35.1851045,136.8998438,March
False,3/30/1960,"Iida, Japan",1/1/1960,35.5147101,137.8219519,March
True,3/25/1960,"Kofu, Japan",1/1/1960,35.6652481,138.5710441,March
True,3/26/1960,"Choshi, Japan",1/1/1960,35.7345338,140.8272667,March
True,3/28/1960,"Tsu, Japan",1/1/1960,34.7341973,136.5153283,March
False,3/29/1960,"Hamamatsu, Japan",1/1/1960,34.7109786,137.7259431,March
True,3/24/1960,"Shizuoka, Japan",1/1/1960,34.979149,138.38299,March
True,3/23/1960,"Tokyo, Japan",1/1/1960,35.6828387,139.7594549,March
False,3/28/1960,"Owase, Japan",1/1/1960,34.0707815,136.1911394,March
True,3/21/1960,"Yokohama, Japan",1/1/1960,35.444991,139.636768,March
False,,"Tateyama, Japan",1/1/1960,34.9965304,139.8699838,
False,,"Oshima, Japan",1/1/1960,34.737515,139.400251,
False,,"Miyakejima, Japan",1/1/1960,34.085378,139.521277314,
False,4/3/1960,"Hachijojima, Japan",1/1/1960,33.1024935,139.807693928,April
False,3/28/1960,"Saigo, Japan",1/1/1960,32.8728923,130.2439633,March
True,3/29/1960,"Matsue, Japan",1/1/1960,35.468115,133.048768,March
False,3/29/1960,"Yonago, Japan",1/1/1960,35.4276408,133.331459,March
True,3/30/1960,"Tottori, Japan",1/1/1960,35.3555075,133.8678525,March
False,3/29/1960,"Toyooka, Japan",1/1/1960,35.5446737,134.8201126,March
False,3/30/1960,"Maizuru, Japan",1/1/1960,35.4704853,135.34844,March
False,3/26/1960,"Hamada, Japan",1/1/1960,34.8991982,132.0799984,March
True,3/29/1960,"Kyoto, Japan",1/1/1960,35.021041,135.7556075,March
True,3/31/1960,"Hikone, Japan",1/1/1960,35.254276,136.215376,March
True,3/23/1960,"Hiroshima, Japan",1/1/1960,34.3916058,132.4518156,March
True,3/28/1960,"Okayama, Japan",1/1/1960,34.6553944,133.9194595,March
True,3/28/1960,"Kobe, Japan",1/1/1960,34.6932379,135.1943764,March
True,3/28/1960,"Osaka, Japan",1/1/1960,34.6198813,135.490357,March
False,3/24/1960,"Sumoto, Japan",1/1/1960,34.3389909,134.859985,March
True,3/21/1960,"Wakayama, Japan",1/1/1960,34.234617,135.1782181,March
False,3/18/1960,"Shionomisaki, Japan",1/1/1960,33.4377085,135.7549926,March
True,3/29/1960,"Nara, Japan",1/1/1960,34.2963089,135.8816819,March
True,3/24/1960,"Matsuyama, Japan",1/1/1960,33.8395188,132.7653521,March
True,3/29/1960,"Takamatsu, Japan",1/1/1960,34.3425592,134.0465338,March
False,,"Uwajima, Japan",1/1/1960,33.2232315,132.5606514,
True,3/23/1960,"Kochi, Japan",1/1/1960,33.5680384,133.5394221,March
True,3/28/1960,"Tokushima, Japan",1/1/1960,34.0698307,134.5550353,March
True,3/29/1960,"Shimonoseki, Japan",1/1/1960,33.9577116,130.9415455,March
False,3/25/1960,"Izuhara, Japan",1/1/1960,34.2022882,129.288952,March
True,3/24/1960,"Fukuoka, Japan",1/1/1960,33.6251241,130.6180016,March
True,3/25/1960,"Saga, Japan",1/1/1960,33.2185408,130.1296585,March
True,3/29/1960,"Oita, Japan",1/1/1960,33.1819875,131.4270217,March
False,3/26/1960,"Fukue, Japan",1/1/1960,34.0471135,130.9156608,March
True,3/22/1960,"Nagasaki, Japan",1/1/1960,33.1154683,129.7874339,March
True,3/22/1960,"Kumamoto, Japan",1/1/1960,32.6450475,130.6341345,March
False,,"Nobeoka, Japan",1/1/1960,32.5823063,131.6649034,
True,3/26/1960,"Kagoshima, Japan",1/1/1960,31.5841689,130.543387,March
True,,"Miyazaki, Japan",1/1/1960,31.9076334,131.4204022,
False,,"Yakushima, Japan",1/1/1960,30.347925,130.524483244,
False,3/30/1960,"Tanegashima, Japan",1/1/1960,30.591848,130.995894840,March
True,1/23/1960,"Naze, Japan",1/1/1960,28.3934485,129.5337385,January
False,,"Yonaguni Island, Japan",1/1/1960,24.455595,122.987605976,
True,,"Ishigaki Island, Japan",1/1/1960,24.3618503,124.1543424,
True,,"Miyakojima, Japan",1/1/1960,24.813957,125.305578983,
False,,"Kumejima, Japan",1/1/1960,26.341139,126.789052891,
True,,"Naha, Japan",1/1/1960,26.2122345,127.6791452,
False,,"Nago, Japan",1/1/1960,26.5914524,127.9773062,
False,2/8/1960,"Iriomote Island, Japan",1/1/1960,24.3464015,123.839163649,February
True,,"Minamidaitojima, Japan",1/1/1960,25.8423115,131.242871292,
True,5/11/1961,"Wakkanai, Japan",1/1/1961,45.4158108,141.6730309,May
False,5/7/1961,"Rumoi, Japan",1/1/1961,43.941029,141.6368171,May
True,5/8/1961,"Asahikawa, Japan",1/1/1961,43.7627501,142.3579263,May
True,5/8/1961,"Abashiri, Japan",1/1/1961,44.0206027,144.2732035,May
True,5/4/1961,"Sapporo, Japan",1/1/1961,43.061936,141.3542924,May
False,5/4/1961,"Iwamizawa, Japan",1/1/1961,43.1959915,141.7761132,May
True,5/5/1961,"Obihiro, Japan",1/1/1961,42.923809,143.1966324,May
True,,"Kushiro, Japan",1/1/1961,42.9906837,144.3820381,
False,5/18/1961,"Nemuro, Japan",1/1/1961,43.3301154,145.5829068,May
True,5/5/1961,"Muroran, Japan",1/1/1961,42.3152461,140.9740731,May
False,5/4/1961,"Urakawa, Japan",1/1/1961,42.1684998,142.7680974,May
False,4/28/1961,"Esashi, Japan",1/1/1961,41.8690714,140.1272235,April
True,4/30/1961,"Hakodate, Japan",1/1/1961,41.768793,140.729008,April
False,5/9/1961,"Kutchan, Japan",1/1/1961,42.901741,140.7590818,May
False,5/6/1961,"Monbetsu, Japan",1/1/1961,44.3565151,143.3545224,May
False,5/2/1961,"Hiroo, Japan",1/1/1961,42.285532,143.3116162,May
False,4/22/1961,"Shinjo, Japan",1/1/1961,38.7648577,140.3021449,April
True,4/24/1961,"Aomori, Japan",1/1/1961,40.886943,140.590121,April
False,4/22/1961,"Hachinohe, Japan",1/1/1961,40.5122388,141.4882959,April
True,4/19/1961,"Akita, Japan",1/1/1961,39.6898802,140.342608,April
True,4/22/1961,"Morioka, Japan",1/1/1961,39.7021331,141.1545397,April
False,4/18/1961,"Miyako, Japan",1/1/1961,39.6395835,141.9461177,April
False,4/16/1961,"Sakata, Japan",1/1/1961,38.9147229,139.8364101,April
True,4/17/1961,"Yamagata, Japan",1/1/1961,38.2553393,140.3400205,April
True,4/11/1961,"Sendai, Japan",1/1/1961,38.2677554,140.8691498,April
True,4/11/1961,"Fukushima, Japan",1/1/1961,37.75454,140.4592144,April
False,4/13/1961,"Shirakawa, Japan",1/1/1961,37.1263397,140.2107192,April
False,4/8/1961,"Onahama, Japan",1/1/1961,36.9383759,140.8977807,April
False,4/4/1961,"Wajima, Japan",1/1/1961,37.3905644,136.8994281,April
False,4/11/1961,"Aikawa, Japan",1/1/1961,35.532347,139.297795,April
True,4/12/1961,"Niigata, Japan",1/1/1961,37.6452283,138.7669125,April
True,4/6/1961,"Kanazawa, Japan",1/1/1961,36.5780499,136.6480247,April
True,4/8/1961,"Toyama, Japan",1/1/1961,36.6957569,137.2136215,April
True,4/14/1961,"Nagano, Japan",1/1/1961,36.1143945,138.0319015,April
False,4/10/1961,"Takada, Japan",1/1/1961,34.516288,135.7448226,April
True,4/5/1961,"Utsunomiya, Japan",1/1/1961,36.5549677,139.8828776,April
True,4/5/1961,"Fukui, Japan",1/1/1961,35.9263502,136.6068127,April
False,4/15/1961,"Takayama, Japan",1/1/1961,36.1396246,137.2510322,April
False,4/14/1961,"Matsumoto, Japan",1/1/1961,36.2382047,137.9687141,April
True,4/2/1961,"Maebashi, Japan",1/1/1961,36.3893418,139.0632826,April
True,4/3/1961,"Kumagaya, Japan",1/1/1961,36.1472472,139.3886141,April
True,4/6/1961,"Mito, Japan",1/1/1961,36.3657792,140.4713933,April
False,4/6/1961,"Tsuruga, Japan",1/1/1961,35.6445135,136.0734634,April
True,4/2/1961,"Gifu, Japan",1/1/1961,35.7867449,137.0460777,April
True,3/31/1961,"Nagoya, Japan",1/1/1961,35.1851045,136.8998438,March
False,4/6/1961,"Iida, Japan",1/1/1961,35.5147101,137.8219519,April
True,4/2/1961,"Kofu, Japan",1/1/1961,35.6652481,138.5710441,April
True,4/1/1961,"Choshi, Japan",1/1/1961,35.7345338,140.8272667,April
True,4/3/1961,"Tsu, Japan",1/1/1961,34.7341973,136.5153283,April
False,4/1/1961,"Hamamatsu, Japan",1/1/1961,34.7109786,137.7259431,April
True,3/31/1961,"Shizuoka, Japan",1/1/1961,34.979149,138.38299,March
True,4/1/1961,"Tokyo, Japan",1/1/1961,35.6828387,139.7594549,April
False,3/28/1961,"Owase, Japan",1/1/1961,34.0707815,136.1911394,March
True,3/31/1961,"Yokohama, Japan",1/1/1961,35.444991,139.636768,March
False,,"Tateyama, Japan",1/1/1961,34.9965304,139.8699838,
False,,"Oshima, Japan",1/1/1961,34.737515,139.400251,
False,,"Miyakejima, Japan",1/1/1961,34.085378,139.521277314,
False,4/1/1961,"Hachijojima, Japan",1/1/1961,33.1024935,139.807693928,April
False,4/3/1961,"Saigo, Japan",1/1/1961,32.8728923,130.2439633,April
True,4/1/1961,"Matsue, Japan",1/1/1961,35.468115,133.048768,April
False,4/1/1961,"Yonago, Japan",1/1/1961,35.4276408,133.331459,April
True,4/4/1961,"Tottori, Japan",1/1/1961,35.3555075,133.8678525,April
False,4/3/1961,"Toyooka, Japan",1/1/1961,35.5446737,134.8201126,April
False,4/4/1961,"Maizuru, Japan",1/1/1961,35.4704853,135.34844,April
False,3/30/1961,"Hamada, Japan",1/1/1961,34.8991982,132.0799984,March
True,3/31/1961,"Kyoto, Japan",1/1/1961,35.021041,135.7556075,March
True,4/4/1961,"Hikone, Japan",1/1/1961,35.254276,136.215376,April
True,3/31/1961,"Hiroshima, Japan",1/1/1961,34.3916058,132.4518156,March
True,4/2/1961,"Okayama, Japan",1/1/1961,34.6553944,133.9194595,April
True,4/1/1961,"Kobe, Japan",1/1/1961,34.6932379,135.1943764,April
True,4/2/1961,"Osaka, Japan",1/1/1961,34.6198813,135.490357,April
False,3/31/1961,"Sumoto, Japan",1/1/1961,34.3389909,134.859985,March
True,3/25/1961,"Wakayama, Japan",1/1/1961,34.234617,135.1782181,March
False,,"Shionomisaki, Japan",1/1/1961,33.4377085,135.7549926,
True,4/2/1961,"Nara, Japan",1/1/1961,34.2963089,135.8816819,April
True,3/29/1961,"Matsuyama, Japan",1/1/1961,33.8395188,132.7653521,March
True,4/1/1961,"Takamatsu, Japan",1/1/1961,34.3425592,134.0465338,April
False,,"Uwajima, Japan",1/1/1961,33.2232315,132.5606514,
True,3/25/1961,"Kochi, Japan",1/1/1961,33.5680384,133.5394221,March
True,4/2/1961,"Tokushima, Japan",1/1/1961,34.0698307,134.5550353,April
True,3/29/1961,"Shimonoseki, Japan",1/1/1961,33.9577116,130.9415455,March
False,3/27/1961,"Izuhara, Japan",1/1/1961,34.2022882,129.288952,March
True,3/28/1961,"Fukuoka, Japan",1/1/1961,33.6251241,130.6180016,March
True,3/23/1961,"Saga, Japan",1/1/1961,33.2185408,130.1296585,March
True,3/31/1961,"Oita, Japan",1/1/1961,33.1819875,131.4270217,March
False,3/23/1961,"Fukue, Japan",1/1/1961,34.0471135,130.9156608,March
True,3/24/1961,"Nagasaki, Japan",1/1/1961,33.1154683,129.7874339,March
True,3/24/1961,"Kumamoto, Japan",1/1/1961,32.6450475,130.6341345,March
False,,"Nobeoka, Japan",1/1/1961,32.5823063,131.6649034,
True,3/28/1961,"Kagoshima, Japan",1/1/1961,31.5841689,130.543387,March
True,,"Miyazaki, Japan",1/1/1961,31.9076334,131.4204022,
False,,"Yakushima, Japan",1/1/1961,30.347925,130.524483244,
False,3/30/1961,"Tanegashima, Japan",1/1/1961,30.591848,130.995894840,March
True,,"Naze, Japan",1/1/1961,28.3934485,129.5337385,
False,,"Yonaguni Island, Japan",1/1/1961,24.455595,122.987605976,
True,1/27/1961,"Ishigaki Island, Japan",1/1/1961,24.3618503,124.1543424,January
True,,"Miyakojima, Japan",1/1/1961,24.813957,125.305578983,
False,,"Kumejima, Japan",1/1/1961,26.341139,126.789052891,
True,,"Naha, Japan",1/1/1961,26.2122345,127.6791452,
False,,"Nago, Japan",1/1/1961,26.5914524,127.9773062,
False,1/20/1961,"Iriomote Island, Japan",1/1/1961,24.3464015,123.839163649,January
True,,"Minamidaitojima, Japan",1/1/1961,25.8423115,131.242871292,
True,5/10/1962,"Wakkanai, Japan",1/1/1962,45.4158108,141.6730309,May
False,5/9/1962,"Rumoi, Japan",1/1/1962,43.941029,141.6368171,May
True,5/8/1962,"Asahikawa, Japan",1/1/1962,43.7627501,142.3579263,May
True,,"Abashiri, Japan",1/1/1962,44.0206027,144.2732035,
True,4/30/1962,"Sapporo, Japan",1/1/1962,43.061936,141.3542924,April
False,5/3/1962,"Iwamizawa, Japan",1/1/1962,43.1959915,141.7761132,May
True,5/4/1962,"Obihiro, Japan",1/1/1962,42.923809,143.1966324,May
True,,"Kushiro, Japan",1/1/1962,42.9906837,144.3820381,
False,5/15/1962,"Nemuro, Japan",1/1/1962,43.3301154,145.5829068,May
True,5/8/1962,"Muroran, Japan",1/1/1962,42.3152461,140.9740731,May
False,5/3/1962,"Urakawa, Japan",1/1/1962,42.1684998,142.7680974,May
False,4/29/1962,"Esashi, Japan",1/1/1962,41.8690714,140.1272235,April
True,5/3/1962,"Hakodate, Japan",1/1/1962,41.768793,140.729008,May
False,5/8/1962,"Kutchan, Japan",1/1/1962,42.901741,140.7590818,May
False,5/9/1962,"Monbetsu, Japan",1/1/1962,44.3565151,143.3545224,May
False,5/5/1962,"Hiroo, Japan",1/1/1962,42.285532,143.3116162,May
False,4/23/1962,"Shinjo, Japan",1/1/1962,38.7648577,140.3021449,April
True,4/25/1962,"Aomori, Japan",1/1/1962,40.886943,140.590121,April
False,4/23/1962,"Hachinohe, Japan",1/1/1962,40.5122388,141.4882959,April
True,4/20/1962,"Akita, Japan",1/1/1962,39.6898802,140.342608,April
True,4/22/1962,"Morioka, Japan",1/1/1962,39.7021331,141.1545397,April
False,4/18/1962,"Miyako, Japan",1/1/1962,39.6395835,141.9461177,April
False,4/16/1962,"Sakata, Japan",1/1/1962,38.9147229,139.8364101,April
True,4/16/1962,"Yamagata, Japan",1/1/1962,38.2553393,140.3400205,April
True,4/14/1962,"Sendai, Japan",1/1/1962,38.2677554,140.8691498,April
True,4/9/1962,"Fukushima, Japan",1/1/1962,37.75454,140.4592144,April
False,4/14/1962,"Shirakawa, Japan",1/1/1962,37.1263397,140.2107192,April
False,4/9/1962,"Onahama, Japan",1/1/1962,36.9383759,140.8977807,April
False,4/10/1962,"Wajima, Japan",1/1/1962,37.3905644,136.8994281,April
False,4/9/1962,"Aikawa, Japan",1/1/1962,35.532347,139.297795,April
True,4/11/1962,"Niigata, Japan",1/1/1962,37.6452283,138.7669125,April
True,4/7/1962,"Kanazawa, Japan",1/1/1962,36.5780499,136.6480247,April
True,4/7/1962,"Toyama, Japan",1/1/1962,36.6957569,137.2136215,April
True,4/15/1962,"Nagano, Japan",1/1/1962,36.1143945,138.0319015,April
False,4/8/1962,"Takada, Japan",1/1/1962,34.516288,135.7448226,April
True,4/7/1962,"Utsunomiya, Japan",1/1/1962,36.5549677,139.8828776,April
True,4/8/1962,"Fukui, Japan",1/1/1962,35.9263502,136.6068127,April
False,4/16/1962,"Takayama, Japan",1/1/1962,36.1396246,137.2510322,April
False,4/14/1962,"Matsumoto, Japan",1/1/1962,36.2382047,137.9687141,April
True,4/2/1962,"Maebashi, Japan",1/1/1962,36.3893418,139.0632826,April
True,4/2/1962,"Kumagaya, Japan",1/1/1962,36.1472472,139.3886141,April
True,4/9/1962,"Mito, Japan",1/1/1962,36.3657792,140.4713933,April
False,4/5/1962,"Tsuruga, Japan",1/1/1962,35.6445135,136.0734634,April
True,4/6/1962,"Gifu, Japan",1/1/1962,35.7867449,137.0460777,April
True,4/3/1962,"Nagoya, Japan",1/1/1962,35.1851045,136.8998438,April
False,4/11/1962,"Iida, Japan",1/1/1962,35.5147101,137.8219519,April
True,4/2/1962,"Kofu, Japan",1/1/1962,35.6652481,138.5710441,April
True,4/1/1962,"Choshi, Japan",1/1/1962,35.7345338,140.8272667,April
True,4/6/1962,"Tsu, Japan",1/1/1962,34.7341973,136.5153283,April
False,4/6/1962,"Hamamatsu, Japan",1/1/1962,34.7109786,137.7259431,April
True,4/2/1962,"Shizuoka, Japan",1/1/1962,34.979149,138.38299,April
True,4/1/1962,"Tokyo, Japan",1/1/1962,35.6828387,139.7594549,April
False,4/2/1962,"Owase, Japan",1/1/1962,34.0707815,136.1911394,April
True,3/29/1962,"Yokohama, Japan",1/1/1962,35.444991,139.636768,March
False,,"Tateyama, Japan",1/1/1962,34.9965304,139.8699838,
False,,"Oshima, Japan",1/1/1962,34.737515,139.400251,
False,,"Miyakejima, Japan",1/1/1962,34.085378,139.521277314,
False,4/2/1962,"Hachijojima, Japan",1/1/1962,33.1024935,139.807693928,April
False,4/7/1962,"Saigo, Japan",1/1/1962,32.8728923,130.2439633,April
True,4/5/1962,"Matsue, Japan",1/1/1962,35.468115,133.048768,April
False,4/5/1962,"Yonago, Japan",1/1/1962,35.4276408,133.331459,April
True,4/4/1962,"Tottori, Japan",1/1/1962,35.3555075,133.8678525,April
False,4/7/1962,"Toyooka, Japan",1/1/1962,35.5446737,134.8201126,April
False,4/3/1962,"Maizuru, Japan",1/1/1962,35.4704853,135.34844,April
False,3/28/1962,"Hamada, Japan",1/1/1962,34.8991982,132.0799984,March
True,4/2/1962,"Kyoto, Japan",1/1/1962,35.021041,135.7556075,April
True,4/5/1962,"Hikone, Japan",1/1/1962,35.254276,136.215376,April
True,3/30/1962,"Hiroshima, Japan",1/1/1962,34.3916058,132.4518156,March
True,4/2/1962,"Okayama, Japan",1/1/1962,34.6553944,133.9194595,April
True,4/2/1962,"Kobe, Japan",1/1/1962,34.6932379,135.1943764,April
True,4/4/1962,"Osaka, Japan",1/1/1962,34.6198813,135.490357,April
False,3/29/1962,"Sumoto, Japan",1/1/1962,34.3389909,134.859985,March
True,3/30/1962,"Wakayama, Japan",1/1/1962,34.234617,135.1782181,March
False,3/26/1962,"Shionomisaki, Japan",1/1/1962,33.4377085,135.7549926,March
True,4/2/1962,"Nara, Japan",1/1/1962,34.2963089,135.8816819,April
True,4/1/1962,"Matsuyama, Japan",1/1/1962,33.8395188,132.7653521,April
True,4/4/1962,"Takamatsu, Japan",1/1/1962,34.3425592,134.0465338,April
False,,"Uwajima, Japan",1/1/1962,33.2232315,132.5606514,
True,3/30/1962,"Kochi, Japan",1/1/1962,33.5680384,133.5394221,March
True,3/30/1962,"Tokushima, Japan",1/1/1962,34.0698307,134.5550353,March
True,4/2/1962,"Shimonoseki, Japan",1/1/1962,33.9577116,130.9415455,April
False,4/5/1962,"Izuhara, Japan",1/1/1962,34.2022882,129.288952,April
False,3/30/1962,"Fukue, Japan",1/1/1962,34.0471135,130.9156608,March
False,2/7/1962,"Iriomote Island, Japan",1/1/1962,24.3464015,123.839163649,February
False,2/8/1962,"Kumejima, Japan",1/1/1962,26.341139,126.789052891,February
False,,"Nago, Japan",1/1/1962,26.5914524,127.9773062,
False,3/30/1962,"Nobeoka, Japan",1/1/1962,32.5823063,131.6649034,March
False,3/21/1962,"Tanegashima, Japan",1/1/1962,30.591848,130.995894840,March
False,,"Yakushima, Japan",1/1/1962,30.347925,130.524483244,
False,,"Yonaguni Island, Japan",1/1/1962,24.455595,122.987605976,
False,4/12/1963,"Aikawa, Japan",1/1/1963,35.532347,139.297795,April
False,4/27/1963,"Esashi, Japan",1/1/1963,41.8690714,140.1272235,April
False,4/2/1963,"Fukue, Japan",1/1/1963,34.0471135,130.9156608,April
False,4/1/1963,"Hachijojima, Japan",1/1/1963,33.1024935,139.807693928,April
False,4/20/1963,"Hachinohe, Japan",1/1/1963,40.5122388,141.4882959,April
False,4/4/1963,"Hamada, Japan",1/1/1963,34.8991982,132.0799984,April
False,3/31/1963,"Hamamatsu, Japan",1/1/1963,34.7109786,137.7259431,March
False,5/6/1963,"Hiroo, Japan",1/1/1963,42.285532,143.3116162,May
False,4/7/1963,"Iida, Japan",1/1/1963,35.5147101,137.8219519,April
False,1/10/1963,"Iriomote Island, Japan",1/1/1963,24.3464015,123.839163649,January
False,5/8/1963,"Iwamizawa, Japan",1/1/1963,43.1959915,141.7761132,May
False,4/1/1963,"Izuhara, Japan",1/1/1963,34.2022882,129.288952,April
False,2/15/1963,"Kumejima, Japan",1/1/1963,26.341139,126.789052891,February
False,5/7/1963,"Kutchan, Japan",1/1/1963,42.901741,140.7590818,May
False,4/3/1963,"Maizuru, Japan",1/1/1963,35.4704853,135.34844,April
False,4/15/1963,"Matsumoto, Japan",1/1/1963,36.2382047,137.9687141,April
False,,"Miyakejima, Japan",1/1/1963,34.085378,139.521277314,
False,4/15/1963,"Miyako, Japan",1/1/1963,39.6395835,141.9461177,April
False,5/9/1963,"Monbetsu, Japan",1/1/1963,44.3565151,143.3545224,May
False,,"Nago, Japan",1/1/1963,26.5914524,127.9773062,
False,5/18/1963,"Nemuro, Japan",1/1/1963,43.3301154,145.5829068,May
False,3/28/1963,"Nobeoka, Japan",1/1/1963,32.5823063,131.6649034,March
False,4/13/1963,"Onahama, Japan",1/1/1963,36.9383759,140.8977807,April
False,4/1/1963,"Oshima, Japan",1/1/1963,34.737515,139.400251,April
False,4/1/1963,"Owase, Japan",1/1/1963,34.0707815,136.1911394,April
False,5/13/1963,"Rumoi, Japan",1/1/1963,43.941029,141.6368171,May
False,4/9/1963,"Saigo, Japan",1/1/1963,32.8728923,130.2439633,April
False,4/15/1963,"Sakata, Japan",1/1/1963,38.9147229,139.8364101,April
False,4/20/1963,"Shinjo, Japan",1/1/1963,38.7648577,140.3021449,April
False,3/30/1963,"Shionomisaki, Japan",1/1/1963,33.4377085,135.7549926,March
False,4/14/1963,"Shirakawa, Japan",1/1/1963,37.1263397,140.2107192,April
False,4/3/1963,"Sumoto, Japan",1/1/1963,34.3389909,134.859985,April
False,4/7/1963,"Takada, Japan",1/1/1963,34.516288,135.7448226,April
False,4/17/1963,"Takayama, Japan",1/1/1963,36.1396246,137.2510322,April
False,,"Tanegashima, Japan",1/1/1963,30.591848,130.995894840,
False,,"Tateyama, Japan",1/1/1963,34.9965304,139.8699838,
False,4/8/1963,"Toyooka, Japan",1/1/1963,35.5446737,134.8201126,April
False,4/6/1963,"Tsuruga, Japan",1/1/1963,35.6445135,136.0734634,April
False,5/10/1963,"Urakawa, Japan",1/1/1963,42.1684998,142.7680974,May
False,,"Uwajima, Japan",1/1/1963,33.2232315,132.5606514,
False,4/11/1963,"Wajima, Japan",1/1/1963,37.3905644,136.8994281,April
False,,"Yakushima, Japan",1/1/1963,30.347925,130.524483244,
False,4/5/1963,"Yonago, Japan",1/1/1963,35.4276408,133.331459,April
False,,"Yonaguni Island, Japan",1/1/1963,24.455595,122.987605976,
False,4/14/1964,"Aikawa, Japan",1/1/1964,35.532347,139.297795,April
False,5/5/1964,"Esashi, Japan",1/1/1964,41.8690714,140.1272235,May
False,3/31/1964,"Fukue, Japan",1/1/1964,34.0471135,130.9156608,March
False,4/5/1964,"Hachijojima, Japan",1/1/1964,33.1024935,139.807693928,April
False,4/27/1964,"Hachinohe, Japan",1/1/1964,40.5122388,141.4882959,April
False,4/1/1964,"Hamada, Japan",1/1/1964,34.8991982,132.0799984,April
False,4/2/1964,"Hamamatsu, Japan",1/1/1964,34.7109786,137.7259431,April
False,5/11/1964,"Hiroo, Japan",1/1/1964,42.285532,143.3116162,May
False,4/9/1964,"Iida, Japan",1/1/1964,35.5147101,137.8219519,April
False,2/5/1964,"Iriomote Island, Japan",1/1/1964,24.3464015,123.839163649,February
False,5/7/1964,"Iwamizawa, Japan",1/1/1964,43.1959915,141.7761132,May
False,4/1/1964,"Izuhara, Japan",1/1/1964,34.2022882,129.288952,April
False,1/27/1964,"Kumejima, Japan",1/1/1964,26.341139,126.789052891,January
False,5/9/1964,"Kutchan, Japan",1/1/1964,42.901741,140.7590818,May
False,4/5/1964,"Maizuru, Japan",1/1/1964,35.4704853,135.34844,April
False,4/13/1964,"Matsumoto, Japan",1/1/1964,36.2382047,137.9687141,April
False,,"Miyakejima, Japan",1/1/1964,34.085378,139.521277314,
False,4/20/1964,"Miyako, Japan",1/1/1964,39.6395835,141.9461177,April
False,5/13/1964,"Monbetsu, Japan",1/1/1964,44.3565151,143.3545224,May
False,,"Nago, Japan",1/1/1964,26.5914524,127.9773062,
False,5/22/1964,"Nemuro, Japan",1/1/1964,43.3301154,145.5829068,May
False,3/21/1964,"Nobeoka, Japan",1/1/1964,32.5823063,131.6649034,March
False,4/10/1964,"Onahama, Japan",1/1/1964,36.9383759,140.8977807,April
False,4/3/1964,"Oshima, Japan",1/1/1964,34.737515,139.400251,April
False,4/3/1964,"Owase, Japan",1/1/1964,34.0707815,136.1911394,April
False,5/8/1964,"Rumoi, Japan",1/1/1964,43.941029,141.6368171,May
False,4/7/1964,"Saigo, Japan",1/1/1964,32.8728923,130.2439633,April
False,4/15/1964,"Sakata, Japan",1/1/1964,38.9147229,139.8364101,April
False,4/17/1964,"Shinjo, Japan",1/1/1964,38.7648577,140.3021449,April
False,4/3/1964,"Shionomisaki, Japan",1/1/1964,33.4377085,135.7549926,April
False,4/13/1964,"Shirakawa, Japan",1/1/1964,37.1263397,140.2107192,April
False,4/3/1964,"Sumoto, Japan",1/1/1964,34.3389909,134.859985,April
False,4/7/1964,"Takada, Japan",1/1/1964,34.516288,135.7448226,April
False,4/12/1964,"Takayama, Japan",1/1/1964,36.1396246,137.2510322,April
False,,"Tanegashima, Japan",1/1/1964,30.591848,130.995894840,
False,,"Tateyama, Japan",1/1/1964,34.9965304,139.8699838,
False,4/4/1964,"Toyooka, Japan",1/1/1964,35.5446737,134.8201126,April
False,4/5/1964,"Tsuruga, Japan",1/1/1964,35.6445135,136.0734634,April
False,5/11/1964,"Urakawa, Japan",1/1/1964,42.1684998,142.7680974,May
False,,"Uwajima, Japan",1/1/1964,33.2232315,132.5606514,
False,4/12/1964,"Wajima, Japan",1/1/1964,37.3905644,136.8994281,April
False,,"Yakushima, Japan",1/1/1964,30.347925,130.524483244,
False,4/3/1964,"Yonago, Japan",1/1/1964,35.4276408,133.331459,April
False,,"Yonaguni Island, Japan",1/1/1964,24.455595,122.987605976,
False,4/19/1965,"Aikawa, Japan",1/1/1965,35.532347,139.297795,April
False,5/13/1965,"Esashi, Japan",1/1/1965,41.8690714,140.1272235,May
False,4/2/1965,"Fukue, Japan",1/1/1965,34.0471135,130.9156608,April
False,4/7/1965,"Hachijojima, Japan",1/1/1965,33.1024935,139.807693928,April
False,5/6/1965,"Hachinohe, Japan",1/1/1965,40.5122388,141.4882959,May
False,4/1/1965,"Hamada, Japan",1/1/1965,34.8991982,132.0799984,April
False,4/7/1965,"Hamamatsu, Japan",1/1/1965,34.7109786,137.7259431,April
False,5/17/1965,"Hiroo, Japan",1/1/1965,42.285532,143.3116162,May
False,4/16/1965,"Iida, Japan",1/1/1965,35.5147101,137.8219519,April
False,1/25/1965,"Iriomote Island, Japan",1/1/1965,24.3464015,123.839163649,January
False,5/16/1965,"Iwamizawa, Japan",1/1/1965,43.1959915,141.7761132,May
False,4/3/1965,"Izuhara, Japan",1/1/1965,34.2022882,129.288952,April
False,1/27/1965,"Kumejima, Japan",1/1/1965,26.341139,126.789052891,January
False,5/20/1965,"Kutchan, Japan",1/1/1965,42.901741,140.7590818,May
False,4/13/1965,"Maizuru, Japan",1/1/1965,35.4704853,135.34844,April
False,4/25/1965,"Matsumoto, Japan",1/1/1965,36.2382047,137.9687141,April
False,3/28/1965,"Miyakejima, Japan",1/1/1965,34.085378,139.521277314,March
False,4/30/1965,"Miyako, Japan",1/1/1965,39.6395835,141.9461177,April
False,5/18/1965,"Monbetsu, Japan",1/1/1965,44.3565151,143.3545224,May
False,,"Nago, Japan",1/1/1965,26.5914524,127.9773062,
False,5/21/1965,"Nemuro, Japan",1/1/1965,43.3301154,145.5829068,May
False,3/25/1965,"Nobeoka, Japan",1/1/1965,32.5823063,131.6649034,March
False,4/15/1965,"Onahama, Japan",1/1/1965,36.9383759,140.8977807,April
False,4/6/1965,"Oshima, Japan",1/1/1965,34.737515,139.400251,April
False,4/7/1965,"Owase, Japan",1/1/1965,34.0707815,136.1911394,April
False,5/18/1965,"Rumoi, Japan",1/1/1965,43.941029,141.6368171,May
False,4/12/1965,"Saigo, Japan",1/1/1965,32.8728923,130.2439633,April
False,4/25/1965,"Sakata, Japan",1/1/1965,38.9147229,139.8364101,April
False,5/6/1965,"Shinjo, Japan",1/1/1965,38.7648577,140.3021449,May
False,4/6/1965,"Shionomisaki, Japan",1/1/1965,33.4377085,135.7549926,April
False,4/25/1965,"Shirakawa, Japan",1/1/1965,37.1263397,140.2107192,April
False,4/5/1965,"Sumoto, Japan",1/1/1965,34.3389909,134.859985,April
False,4/16/1965,"Takada, Japan",1/1/1965,34.516288,135.7448226,April
False,4/25/1965,"Takayama, Japan",1/1/1965,36.1396246,137.2510322,April
False,4/1/1965,"Tanegashima, Japan",1/1/1965,30.591848,130.995894840,April
False,,"Tateyama, Japan",1/1/1965,34.9965304,139.8699838,
False,4/14/1965,"Toyooka, Japan",1/1/1965,35.5446737,134.8201126,April
False,4/15/1965,"Tsuruga, Japan",1/1/1965,35.6445135,136.0734634,April
False,5/18/1965,"Urakawa, Japan",1/1/1965,42.1684998,142.7680974,May
False,,"Uwajima, Japan",1/1/1965,33.2232315,132.5606514,
False,4/18/1965,"Wajima, Japan",1/1/1965,37.3905644,136.8994281,April
False,,"Yakushima, Japan",1/1/1965,30.347925,130.524483244,
False,4/13/1965,"Yonago, Japan",1/1/1965,35.4276408,133.331459,April
False,,"Yonaguni Island, Japan",1/1/1965,24.455595,122.987605976,
False,4/12/1966,"Aikawa, Japan",1/1/1966,35.532347,139.297795,April
False,5/4/1966,"Esashi, Japan",1/1/1966,41.8690714,140.1272235,May
False,3/24/1966,"Fukue, Japan",1/1/1966,34.0471135,130.9156608,March
False,3/28/1966,"Hachijojima, Japan",1/1/1966,33.1024935,139.807693928,March
False,4/26/1966,"Hachinohe, Japan",1/1/1966,40.5122388,141.4882959,April
False,3/20/1966,"Hamada, Japan",1/1/1966,34.8991982,132.0799984,March
False,3/22/1966,"Hamamatsu, Japan",1/1/1966,34.7109786,137.7259431,March
False,5/15/1966,"Hiroo, Japan",1/1/1966,42.285532,143.3116162,May
False,4/5/1966,"Iida, Japan",1/1/1966,35.5147101,137.8219519,April
False,1/27/1966,"Iriomote Island, Japan",1/1/1966,24.3464015,123.839163649,January
False,5/12/1966,"Iwamizawa, Japan",1/1/1966,43.1959915,141.7761132,May
False,3/24/1966,"Izuhara, Japan",1/1/1966,34.2022882,129.288952,March
False,2/1/1966,"Kumejima, Japan",1/1/1966,26.341139,126.789052891,February
False,5/17/1966,"Kutchan, Japan",1/1/1966,42.901741,140.7590818,May
False,4/2/1966,"Maizuru, Japan",1/1/1966,35.4704853,135.34844,April
False,4/14/1966,"Matsumoto, Japan",1/1/1966,36.2382047,137.9687141,April
False,3/17/1966,"Miyakejima, Japan",1/1/1966,34.085378,139.521277314,March
False,4/17/1966,"Miyako, Japan",1/1/1966,39.6395835,141.9461177,April
False,5/19/1966,"Monbetsu, Japan",1/1/1966,44.3565151,143.3545224,May
False,,"Nago, Japan",1/1/1966,26.5914524,127.9773062,
False,5/20/1966,"Nemuro, Japan",1/1/1966,43.3301154,145.5829068,May
False,3/19/1966,"Nobeoka, Japan",1/1/1966,32.5823063,131.6649034,March
False,4/1/1966,"Onahama, Japan",1/1/1966,36.9383759,140.8977807,April
False,3/17/1966,"Oshima, Japan",1/1/1966,34.737515,139.400251,March
False,3/22/1966,"Owase, Japan",1/1/1966,34.0707815,136.1911394,March
False,5/16/1966,"Rumoi, Japan",1/1/1966,43.941029,141.6368171,May
False,3/30/1966,"Saigo, Japan",1/1/1966,32.8728923,130.2439633,March
False,4/15/1966,"Sakata, Japan",1/1/1966,38.9147229,139.8364101,April
False,4/22/1966,"Shinjo, Japan",1/1/1966,38.7648577,140.3021449,April
False,3/21/1966,"Shionomisaki, Japan",1/1/1966,33.4377085,135.7549926,March
False,4/13/1966,"Shirakawa, Japan",1/1/1966,37.1263397,140.2107192,April
False,3/19/1966,"Sumoto, Japan",1/1/1966,34.3389909,134.859985,March
False,4/10/1966,"Takada, Japan",1/1/1966,34.516288,135.7448226,April
False,4/16/1966,"Takayama, Japan",1/1/1966,36.1396246,137.2510322,April
False,3/20/1966,"Tanegashima, Japan",1/1/1966,30.591848,130.995894840,March
False,,"Tateyama, Japan",1/1/1966,34.9965304,139.8699838,
False,4/1/1966,"Toyooka, Japan",1/1/1966,35.5446737,134.8201126,April
False,3/29/1966,"Tsuruga, Japan",1/1/1966,35.6445135,136.0734634,March
False,5/11/1966,"Urakawa, Japan",1/1/1966,42.1684998,142.7680974,May
False,,"Uwajima, Japan",1/1/1966,33.2232315,132.5606514,
False,4/9/1966,"Wajima, Japan",1/1/1966,37.3905644,136.8994281,April
False,,"Yakushima, Japan",1/1/1966,30.347925,130.524483244,
False,3/29/1966,"Yonago, Japan",1/1/1966,35.4276408,133.331459,March
False,,"Yonaguni Island, Japan",1/1/1966,24.455595,122.987605976,
False,4/10/1967,"Aikawa, Japan",1/1/1967,35.532347,139.297795,April
False,5/1/1967,"Esashi, Japan",1/1/1967,41.8690714,140.1272235,May
False,3/29/1967,"Fukue, Japan",1/1/1967,34.0471135,130.9156608,March
False,3/28/1967,"Hachijojima, Japan",1/1/1967,33.1024935,139.807693928,March
False,4/26/1967,"Hachinohe, Japan",1/1/1967,40.5122388,141.4882959,April
False,3/26/1967,"Hamada, Japan",1/1/1967,34.8991982,132.0799984,March
False,3/28/1967,"Hamamatsu, Japan",1/1/1967,34.7109786,137.7259431,March
False,5/2/1967,"Hiroo, Japan",1/1/1967,42.285532,143.3116162,May
False,4/8/1967,"Iida, Japan",1/1/1967,35.5147101,137.8219519,April
False,,"Iriomote Island, Japan",1/1/1967,24.3464015,123.839163649,
False,5/5/1967,"Iwamizawa, Japan",1/1/1967,43.1959915,141.7761132,May
False,3/31/1967,"Izuhara, Japan",1/1/1967,34.2022882,129.288952,March
False,,"Kumejima, Japan",1/1/1967,26.341139,126.789052891,
False,5/9/1967,"Kutchan, Japan",1/1/1967,42.901741,140.7590818,May
False,4/2/1967,"Maizuru, Japan",1/1/1967,35.4704853,135.34844,April
False,4/12/1967,"Matsumoto, Japan",1/1/1967,36.2382047,137.9687141,April
False,3/25/1967,"Miyakejima, Japan",1/1/1967,34.085378,139.521277314,March
False,4/20/1967,"Miyako, Japan",1/1/1967,39.6395835,141.9461177,April
False,5/6/1967,"Monbetsu, Japan",1/1/1967,44.3565151,143.3545224,May
False,,"Nago, Japan",1/1/1967,26.5914524,127.9773062,
False,5/14/1967,"Nemuro, Japan",1/1/1967,43.3301154,145.5829068,May
False,3/18/1967,"Nobeoka, Japan",1/1/1967,32.5823063,131.6649034,March
False,4/3/1967,"Onahama, Japan",1/1/1967,36.9383759,140.8977807,April
False,3/31/1967,"Oshima, Japan",1/1/1967,34.737515,139.400251,March
False,3/27/1967,"Owase, Japan",1/1/1967,34.0707815,136.1911394,March
False,5/11/1967,"Rumoi, Japan",1/1/1967,43.941029,141.6368171,May
False,4/1/1967,"Saigo, Japan",1/1/1967,32.8728923,130.2439633,April
False,4/16/1967,"Sakata, Japan",1/1/1967,38.9147229,139.8364101,April
False,4/23/1967,"Shinjo, Japan",1/1/1967,38.7648577,140.3021449,April
False,3/27/1967,"Shionomisaki, Japan",1/1/1967,33.4377085,135.7549926,March
False,4/12/1967,"Shirakawa, Japan",1/1/1967,37.1263397,140.2107192,April
False,3/27/1967,"Sumoto, Japan",1/1/1967,34.3389909,134.859985,March
False,4/7/1967,"Takada, Japan",1/1/1967,34.516288,135.7448226,April
False,4/13/1967,"Takayama, Japan",1/1/1967,36.1396246,137.2510322,April
False,3/22/1967,"Tanegashima, Japan",1/1/1967,30.591848,130.995894840,March
False,,"Tateyama, Japan",1/1/1967,34.9965304,139.8699838,
False,4/3/1967,"Toyooka, Japan",1/1/1967,35.5446737,134.8201126,April
False,4/2/1967,"Tsuruga, Japan",1/1/1967,35.6445135,136.0734634,April
False,5/6/1967,"Urakawa, Japan",1/1/1967,42.1684998,142.7680974,May
False,3/25/1967,"Uwajima, Japan",1/1/1967,33.2232315,132.5606514,March
False,4/8/1967,"Wajima, Japan",1/1/1967,37.3905644,136.8994281,April
False,,"Yakushima, Japan",1/1/1967,30.347925,130.524483244,
False,4/1/1967,"Yonago, Japan",1/1/1967,35.4276408,133.331459,April
False,,"Yonaguni Island, Japan",1/1/1967,24.455595,122.987605976,
False,4/10/1968,"Aikawa, Japan",1/1/1968,35.532347,139.297795,April
False,4/27/1968,"Esashi, Japan",1/1/1968,41.8690714,140.1272235,April
False,3/31/1968,"Fukue, Japan",1/1/1968,34.0471135,130.9156608,March
False,3/25/1968,"Hachijojima, Japan",1/1/1968,33.1024935,139.807693928,March
False,4/22/1968,"Hachinohe, Japan",1/1/1968,40.5122388,141.4882959,April
False,4/2/1968,"Hamada, Japan",1/1/1968,34.8991982,132.0799984,April
False,3/31/1968,"Hamamatsu, Japan",1/1/1968,34.7109786,137.7259431,March
False,5/2/1968,"Hiroo, Japan",1/1/1968,42.285532,143.3116162,May
False,4/9/1968,"Iida, Japan",1/1/1968,35.5147101,137.8219519,April
False,,"Iriomote Island, Japan",1/1/1968,24.3464015,123.839163649,
False,5/3/1968,"Iwamizawa, Japan",1/1/1968,43.1959915,141.7761132,May
False,4/1/1968,"Izuhara, Japan",1/1/1968,34.2022882,129.288952,April
False,,"Kumejima, Japan",1/1/1968,26.341139,126.789052891,
False,5/10/1968,"Kutchan, Japan",1/1/1968,42.901741,140.7590818,May
False,4/6/1968,"Maizuru, Japan",1/1/1968,35.4704853,135.34844,April
False,4/14/1968,"Matsumoto, Japan",1/1/1968,36.2382047,137.9687141,April
False,3/28/1968,"Miyakejima, Japan",1/1/1968,34.085378,139.521277314,March
False,4/16/1968,"Miyako, Japan",1/1/1968,39.6395835,141.9461177,April
False,5/7/1968,"Monbetsu, Japan",1/1/1968,44.3565151,143.3545224,May
False,,"Nago, Japan",1/1/1968,26.5914524,127.9773062,
False,5/22/1968,"Nemuro, Japan",1/1/1968,43.3301154,145.5829068,May
False,3/25/1968,"Nobeoka, Japan",1/1/1968,32.5823063,131.6649034,March
False,4/7/1968,"Onahama, Japan",1/1/1968,36.9383759,140.8977807,April
False,3/29/1968,"Oshima, Japan",1/1/1968,34.737515,139.400251,March
False,3/30/1968,"Owase, Japan",1/1/1968,34.0707815,136.1911394,March
False,5/8/1968,"Rumoi, Japan",1/1/1968,43.941029,141.6368171,May
False,4/7/1968,"Saigo, Japan",1/1/1968,32.8728923,130.2439633,April
False,4/13/1968,"Sakata, Japan",1/1/1968,38.9147229,139.8364101,April
False,4/21/1968,"Shinjo, Japan",1/1/1968,38.7648577,140.3021449,April
False,3/27/1968,"Shionomisaki, Japan",1/1/1968,33.4377085,135.7549926,March
False,4/14/1968,"Shirakawa, Japan",1/1/1968,37.1263397,140.2107192,April
False,4/1/1968,"Sumoto, Japan",1/1/1968,34.3389909,134.859985,April
False,4/12/1968,"Takada, Japan",1/1/1968,34.516288,135.7448226,April
False,4/16/1968,"Takayama, Japan",1/1/1968,36.1396246,137.2510322,April
False,3/27/1968,"Tanegashima, Japan",1/1/1968,30.591848,130.995894840,March
False,,"Tateyama, Japan",1/1/1968,34.9965304,139.8699838,
False,4/6/1968,"Toyooka, Japan",1/1/1968,35.5446737,134.8201126,April
False,4/7/1968,"Tsuruga, Japan",1/1/1968,35.6445135,136.0734634,April
False,5/10/1968,"Urakawa, Japan",1/1/1968,42.1684998,142.7680974,May
False,3/29/1968,"Uwajima, Japan",1/1/1968,33.2232315,132.5606514,March
False,4/10/1968,"Wajima, Japan",1/1/1968,37.3905644,136.8994281,April
False,,"Yakushima, Japan",1/1/1968,30.347925,130.524483244,
False,4/4/1968,"Yonago, Japan",1/1/1968,35.4276408,133.331459,April
False,,"Yonaguni Island, Japan",1/1/1968,24.455595,122.987605976,
False,4/14/1969,"Aikawa, Japan",1/1/1969,35.532347,139.297795,April
False,5/5/1969,"Esashi, Japan",1/1/1969,41.8690714,140.1272235,May
False,4/3/1969,"Fukue, Japan",1/1/1969,34.0471135,130.9156608,April
False,4/23/1969,"Hachijojima, Japan",1/1/1969,33.1024935,139.807693928,April
False,4/26/1969,"Hachinohe, Japan",1/1/1969,40.5122388,141.4882959,April
False,4/3/1969,"Hamada, Japan",1/1/1969,34.8991982,132.0799984,April
False,4/1/1969,"Hamamatsu, Japan",1/1/1969,34.7109786,137.7259431,April
False,5/5/1969,"Hiroo, Japan",1/1/1969,42.285532,143.3116162,May
False,4/6/1969,"Iida, Japan",1/1/1969,35.5147101,137.8219519,April
False,,"Iriomote Island, Japan",1/1/1969,24.3464015,123.839163649,
False,5/10/1969,"Iwamizawa, Japan",1/1/1969,43.1959915,141.7761132,May
False,4/4/1969,"Izuhara, Japan",1/1/1969,34.2022882,129.288952,April
False,,"Kumejima, Japan",1/1/1969,26.341139,126.789052891,
False,5/10/1969,"Kutchan, Japan",1/1/1969,42.901741,140.7590818,May
False,4/9/1969,"Maizuru, Japan",1/1/1969,35.4704853,135.34844,April
False,4/14/1969,"Matsumoto, Japan",1/1/1969,36.2382047,137.9687141,April
False,3/25/1969,"Miyakejima, Japan",1/1/1969,34.085378,139.521277314,March
False,4/20/1969,"Miyako, Japan",1/1/1969,39.6395835,141.9461177,April
False,5/6/1969,"Monbetsu, Japan",1/1/1969,44.3565151,143.3545224,May
False,,"Nago, Japan",1/1/1969,26.5914524,127.9773062,
False,5/17/1969,"Nemuro, Japan",1/1/1969,43.3301154,145.5829068,May
False,3/27/1969,"Nobeoka, Japan",1/1/1969,32.5823063,131.6649034,March
False,4/12/1969,"Onahama, Japan",1/1/1969,36.9383759,140.8977807,April
False,4/4/1969,"Oshima, Japan",1/1/1969,34.737515,139.400251,April
False,4/1/1969,"Owase, Japan",1/1/1969,34.0707815,136.1911394,April
False,5/16/1969,"Rumoi, Japan",1/1/1969,43.941029,141.6368171,May
False,4/13/1969,"Saigo, Japan",1/1/1969,32.8728923,130.2439633,April
False,4/20/1969,"Sakata, Japan",1/1/1969,38.9147229,139.8364101,April
False,4/22/1969,"Shinjo, Japan",1/1/1969,38.7648577,140.3021449,April
False,4/4/1969,"Shionomisaki, Japan",1/1/1969,33.4377085,135.7549926,April
False,4/15/1969,"Shirakawa, Japan",1/1/1969,37.1263397,140.2107192,April
False,4/4/1969,"Sumoto, Japan",1/1/1969,34.3389909,134.859985,April
False,4/13/1969,"Takada, Japan",1/1/1969,34.516288,135.7448226,April
False,4/15/1969,"Takayama, Japan",1/1/1969,36.1396246,137.2510322,April
False,,"Tanegashima, Japan",1/1/1969,30.591848,130.995894840,
False,4/1/1969,"Tateyama, Japan",1/1/1969,34.9965304,139.8699838,April
False,4/9/1969,"Toyooka, Japan",1/1/1969,35.5446737,134.8201126,April
False,4/10/1969,"Tsuruga, Japan",1/1/1969,35.6445135,136.0734634,April
False,5/9/1969,"Urakawa, Japan",1/1/1969,42.1684998,142.7680974,May
False,3/30/1969,"Uwajima, Japan",1/1/1969,33.2232315,132.5606514,March
False,4/13/1969,"Wajima, Japan",1/1/1969,37.3905644,136.8994281,April
False,,"Yakushima, Japan",1/1/1969,30.347925,130.524483244,
False,4/9/1969,"Yonago, Japan",1/1/1969,35.4276408,133.331459,April
False,,"Yonaguni Island, Japan",1/1/1969,24.455595,122.987605976,
False,4/21/1970,"Aikawa, Japan",1/1/1970,35.532347,139.297795,April
False,5/7/1970,"Esashi, Japan",1/1/1970,41.8690714,140.1272235,May
False,4/4/1970,"Fukue, Japan",1/1/1970,34.0471135,130.9156608,April
False,4/6/1970,"Hachijojima, Japan",1/1/1970,33.1024935,139.807693928,April
False,4/30/1970,"Hachinohe, Japan",1/1/1970,40.5122388,141.4882959,April
False,4/4/1970,"Hamada, Japan",1/1/1970,34.8991982,132.0799984,April
False,4/3/1970,"Hamamatsu, Japan",1/1/1970,34.7109786,137.7259431,April
False,5/12/1970,"Hiroo, Japan",1/1/1970,42.285532,143.3116162,May
False,4/16/1970,"Iida, Japan",1/1/1970,35.5147101,137.8219519,April
False,,"Iriomote Island, Japan",1/1/1970,24.3464015,123.839163649,
False,5/9/1970,"Iwamizawa, Japan",1/1/1970,43.1959915,141.7761132,May
False,3/31/1970,"Izuhara, Japan",1/1/1970,34.2022882,129.288952,March
False,,"Kumejima, Japan",1/1/1970,26.341139,126.789052891,
False,5/17/1970,"Kutchan, Japan",1/1/1970,42.901741,140.7590818,May
False,4/14/1970,"Maizuru, Japan",1/1/1970,35.4704853,135.34844,April
False,4/21/1970,"Matsumoto, Japan",1/1/1970,36.2382047,137.9687141,April
False,,"Miyakejima, Japan",1/1/1970,34.085378,139.521277314,
False,4/25/1970,"Miyako, Japan",1/1/1970,39.6395835,141.9461177,April
False,5/9/1970,"Monbetsu, Japan",1/1/1970,44.3565151,143.3545224,May
False,,"Nago, Japan",1/1/1970,26.5914524,127.9773062,
False,5/20/1970,"Nemuro, Japan",1/1/1970,43.3301154,145.5829068,May
False,3/26/1970,"Nobeoka, Japan",1/1/1970,32.5823063,131.6649034,March
False,4/16/1970,"Onahama, Japan",1/1/1970,36.9383759,140.8977807,April
False,4/3/1970,"Oshima, Japan",1/1/1970,34.737515,139.400251,April
False,4/5/1970,"Owase, Japan",1/1/1970,34.0707815,136.1911394,April
False,5/9/1970,"Rumoi, Japan",1/1/1970,43.941029,141.6368171,May
False,4/14/1970,"Saigo, Japan",1/1/1970,32.8728923,130.2439633,April
False,4/24/1970,"Sakata, Japan",1/1/1970,38.9147229,139.8364101,April
False,4/29/1970,"Shinjo, Japan",1/1/1970,38.7648577,140.3021449,April
False,4/2/1970,"Shionomisaki, Japan",1/1/1970,33.4377085,135.7549926,April
False,4/23/1970,"Shirakawa, Japan",1/1/1970,37.1263397,140.2107192,April
False,4/6/1970,"Sumoto, Japan",1/1/1970,34.3389909,134.859985,April
False,4/21/1970,"Takada, Japan",1/1/1970,34.516288,135.7448226,April
False,4/24/1970,"Takayama, Japan",1/1/1970,36.1396246,137.2510322,April
False,,"Tanegashima, Japan",1/1/1970,30.591848,130.995894840,
False,4/6/1970,"Tateyama, Japan",1/1/1970,34.9965304,139.8699838,April
False,4/14/1970,"Toyooka, Japan",1/1/1970,35.5446737,134.8201126,April
False,4/13/1970,"Tsuruga, Japan",1/1/1970,35.6445135,136.0734634,April
False,5/12/1970,"Urakawa, Japan",1/1/1970,42.1684998,142.7680974,May
False,4/1/1970,"Uwajima, Japan",1/1/1970,33.2232315,132.5606514,April
False,4/18/1970,"Wajima, Japan",1/1/1970,37.3905644,136.8994281,April
False,,"Yakushima, Japan",1/1/1970,30.347925,130.524483244,
False,4/9/1970,"Yonago, Japan",1/1/1970,35.4276408,133.331459,April
False,,"Yonaguni Island, Japan",1/1/1970,24.455595,122.987605976,
False,4/14/1971,"Aikawa, Japan",1/1/1971,35.532347,139.297795,April
False,5/10/1971,"Esashi, Japan",1/1/1971,41.8690714,140.1272235,May
False,3/28/1971,"Fukue, Japan",1/1/1971,34.0471135,130.9156608,March
False,4/2/1971,"Hachijojima, Japan",1/1/1971,33.1024935,139.807693928,April
False,4/22/1971,"Hachinohe, Japan",1/1/1971,40.5122388,141.4882959,April
False,4/2/1971,"Hamada, Japan",1/1/1971,34.8991982,132.0799984,April
False,3/28/1971,"Hamamatsu, Japan",1/1/1971,34.7109786,137.7259431,March
False,5/12/1971,"Hiroo, Japan",1/1/1971,42.285532,143.3116162,May
False,4/5/1971,"Iida, Japan",1/1/1971,35.5147101,137.8219519,April
False,1/20/1971,"Iriomote Island, Japan",1/1/1971,24.3464015,123.839163649,January
False,5/14/1971,"Iwamizawa, Japan",1/1/1971,43.1959915,141.7761132,May
False,3/31/1971,"Izuhara, Japan",1/1/1971,34.2022882,129.288952,March
False,,"Kumejima, Japan",1/1/1971,26.341139,126.789052891,
False,,"Kutchan, Japan",1/1/1971,42.901741,140.7590818,
False,4/6/1971,"Maizuru, Japan",1/1/1971,35.4704853,135.34844,April
False,4/14/1971,"Matsumoto, Japan",1/1/1971,36.2382047,137.9687141,April
False,3/27/1971,"Miyakejima, Japan",1/1/1971,34.085378,139.521277314,March
False,4/19/1971,"Miyako, Japan",1/1/1971,39.6395835,141.9461177,April
False,5/16/1971,"Monbetsu, Japan",1/1/1971,44.3565151,143.3545224,May
False,,"Nago, Japan",1/1/1971,26.5914524,127.9773062,
False,5/26/1971,"Nemuro, Japan",1/1/1971,43.3301154,145.5829068,May
False,3/25/1971,"Nobeoka, Japan",1/1/1971,32.5823063,131.6649034,March
False,4/9/1971,"Onahama, Japan",1/1/1971,36.9383759,140.8977807,April
False,3/29/1971,"Oshima, Japan",1/1/1971,34.737515,139.400251,March
False,3/28/1971,"Owase, Japan",1/1/1971,34.0707815,136.1911394,March
False,5/17/1971,"Rumoi, Japan",1/1/1971,43.941029,141.6368171,May
False,4/8/1971,"Saigo, Japan",1/1/1971,32.8728923,130.2439633,April
False,4/18/1971,"Sakata, Japan",1/1/1971,38.9147229,139.8364101,April
False,4/23/1971,"Shinjo, Japan",1/1/1971,38.7648577,140.3021449,April
False,3/27/1971,"Shionomisaki, Japan",1/1/1971,33.4377085,135.7549926,March
False,4/15/1971,"Shirakawa, Japan",1/1/1971,37.1263397,140.2107192,April
False,3/30/1971,"Sumoto, Japan",1/1/1971,34.3389909,134.859985,March
False,4/10/1971,"Takada, Japan",1/1/1971,34.516288,135.7448226,April
False,4/14/1971,"Takayama, Japan",1/1/1971,36.1396246,137.2510322,April
False,3/22/1971,"Tanegashima, Japan",1/1/1971,30.591848,130.995894840,March
False,3/30/1971,"Tateyama, Japan",1/1/1971,34.9965304,139.8699838,March
False,4/7/1971,"Toyooka, Japan",1/1/1971,35.5446737,134.8201126,April
False,4/6/1971,"Tsuruga, Japan",1/1/1971,35.6445135,136.0734634,April
False,5/14/1971,"Urakawa, Japan",1/1/1971,42.1684998,142.7680974,May
False,3/26/1971,"Uwajima, Japan",1/1/1971,33.2232315,132.5606514,March
False,4/12/1971,"Wajima, Japan",1/1/1971,37.3905644,136.8994281,April
False,,"Yakushima, Japan",1/1/1971,30.347925,130.524483244,
False,4/5/1971,"Yonago, Japan",1/1/1971,35.4276408,133.331459,April
False,,"Yonaguni Island, Japan",1/1/1971,24.455595,122.987605976,
False,4/12/1972,"Aikawa, Japan",1/1/1972,35.532347,139.297795,April
False,4/29/1972,"Esashi, Japan",1/1/1972,41.8690714,140.1272235,April
False,4/2/1972,"Fukue, Japan",1/1/1972,34.0471135,130.9156608,April
False,4/15/1972,"Hachijojima, Japan",1/1/1972,33.1024935,139.807693928,April
False,4/24/1972,"Hachinohe, Japan",1/1/1972,40.5122388,141.4882959,April
False,4/3/1972,"Hamada, Japan",1/1/1972,34.8991982,132.0799984,April
False,3/27/1972,"Hamamatsu, Japan",1/1/1972,34.7109786,137.7259431,March
False,5/5/1972,"Hiroo, Japan",1/1/1972,42.285532,143.3116162,May
False,4/4/1972,"Iida, Japan",1/1/1972,35.5147101,137.8219519,April
False,1/27/1972,"Iriomote Island, Japan",1/1/1972,24.3464015,123.839163649,January
False,5/4/1972,"Iwamizawa, Japan",1/1/1972,43.1959915,141.7761132,May
False,4/4/1972,"Izuhara, Japan",1/1/1972,34.2022882,129.288952,April
False,1/19/1972,"Kumejima, Japan",1/1/1972,26.341139,126.789052891,January
False,5/7/1972,"Kutchan, Japan",1/1/1972,42.901741,140.7590818,May
False,3/31/1972,"Maizuru, Japan",1/1/1972,35.4704853,135.34844,March
False,4/8/1972,"Matsumoto, Japan",1/1/1972,36.2382047,137.9687141,April
False,3/30/1972,"Miyakejima, Japan",1/1/1972,34.085378,139.521277314,March
False,4/19/1972,"Miyako, Japan",1/1/1972,39.6395835,141.9461177,April
False,5/5/1972,"Monbetsu, Japan",1/1/1972,44.3565151,143.3545224,May
False,12/25/1971,"Nago, Japan",1/1/1972,26.5914524,127.9773062,12
False,5/12/1972,"Nemuro, Japan",1/1/1972,43.3301154,145.5829068,May
False,3/23/1972,"Nobeoka, Japan",1/1/1972,32.5823063,131.6649034,March
False,4/3/1972,"Onahama, Japan",1/1/1972,36.9383759,140.8977807,April
False,3/29/1972,"Oshima, Japan",1/1/1972,34.737515,139.400251,March
False,3/29/1972,"Owase, Japan",1/1/1972,34.0707815,136.1911394,March
False,,"Rumoi, Japan",1/1/1972,43.941029,141.6368171,
False,4/6/1972,"Saigo, Japan",1/1/1972,32.8728923,130.2439633,April
False,4/13/1972,"Sakata, Japan",1/1/1972,38.9147229,139.8364101,April
False,4/13/1972,"Shinjo, Japan",1/1/1972,38.7648577,140.3021449,April
False,3/30/1972,"Shionomisaki, Japan",1/1/1972,33.4377085,135.7549926,March
False,4/14/1972,"Shirakawa, Japan",1/1/1972,37.1263397,140.2107192,April
False,3/29/1972,"Sumoto, Japan",1/1/1972,34.3389909,134.859985,March
False,4/5/1972,"Takada, Japan",1/1/1972,34.516288,135.7448226,April
False,4/10/1972,"Takayama, Japan",1/1/1972,36.1396246,137.2510322,April
False,3/25/1972,"Tanegashima, Japan",1/1/1972,30.591848,130.995894840,March
False,3/29/1972,"Tateyama, Japan",1/1/1972,34.9965304,139.8699838,March
False,4/2/1972,"Toyooka, Japan",1/1/1972,35.5446737,134.8201126,April
False,4/4/1972,"Tsuruga, Japan",1/1/1972,35.6445135,136.0734634,April
False,5/3/1972,"Urakawa, Japan",1/1/1972,42.1684998,142.7680974,May
False,3/26/1972,"Uwajima, Japan",1/1/1972,33.2232315,132.5606514,March
False,4/9/1972,"Wajima, Japan",1/1/1972,37.3905644,136.8994281,April
False,,"Yakushima, Japan",1/1/1972,30.347925,130.524483244,
False,3/31/1972,"Yonago, Japan",1/1/1972,35.4276408,133.331459,March
False,,"Yonaguni Island, Japan",1/1/1972,24.455595,122.987605976,
False,4/11/1973,"Aikawa, Japan",1/1/1973,35.532347,139.297795,April
False,5/1/1973,"Esashi, Japan",1/1/1973,41.8690714,140.1272235,May
False,3/29/1973,"Fukue, Japan",1/1/1973,34.0471135,130.9156608,March
False,4/7/1973,"Hachijojima, Japan",1/1/1973,33.1024935,139.807693928,April
False,4/20/1973,"Hachinohe, Japan",1/1/1973,40.5122388,141.4882959,April
False,3/28/1973,"Hamada, Japan",1/1/1973,34.8991982,132.0799984,March
False,3/30/1973,"Hamamatsu, Japan",1/1/1973,34.7109786,137.7259431,March
False,5/5/1973,"Hiroo, Japan",1/1/1973,42.285532,143.3116162,May
False,4/6/1973,"Iida, Japan",1/1/1973,35.5147101,137.8219519,April
False,1/15/1973,"Iriomote Island, Japan",1/1/1973,24.3464015,123.839163649,January
False,5/7/1973,"Iwamizawa, Japan",1/1/1973,43.1959915,141.7761132,May
False,3/29/1973,"Izuhara, Japan",1/1/1973,34.2022882,129.288952,March
False,1/17/1973,"Kumejima, Japan",1/1/1973,26.341139,126.789052891,January
False,5/11/1973,"Kutchan, Japan",1/1/1973,42.901741,140.7590818,May
False,4/4/1973,"Maizuru, Japan",1/1/1973,35.4704853,135.34844,April
False,4/13/1973,"Matsumoto, Japan",1/1/1973,36.2382047,137.9687141,April
False,4/1/1973,"Miyakejima, Japan",1/1/1973,34.085378,139.521277314,April
False,4/16/1973,"Miyako, Japan",1/1/1973,39.6395835,141.9461177,April
False,5/11/1973,"Monbetsu, Japan",1/1/1973,44.3565151,143.3545224,May
False,12/19/1972,"Nago, Japan",1/1/1973,26.5914524,127.9773062,12
False,5/14/1973,"Nemuro, Japan",1/1/1973,43.3301154,145.5829068,May
False,3/22/1973,"Nobeoka, Japan",1/1/1973,32.5823063,131.6649034,March
